공연시설ID,공연시설명,공연장수,시설특성,개관연도,객석수,전화번호,홈페이지,주소,위도,경도,레스토랑여부,카페여부,편의점여부,놀이방여부,수유실여부,장애시설_주차장,장애시설_화장실,장애시설_경사로,장애시설_엘리베이터,주차시설여부,mt13s,returncode,errmsg,responsetime,시군구,시도
FC002047,이너프 라운지,1.0,기타(비공연장),2016.0,30.0,02-711-9245,http://enough.kr/,서울특별시 마포구 토정로17길 11 (신수동),37.5453019,126.9359164,N,Y,N,N,N,N,N,N,N,Y,,,,,마포구,서울특별시
FC002611,서울대학교,4.0,공공(기타),,115.0,02-880-5114,,서울특별시 관악구 관악로 1 (신림동),37.4680381,126.9592943,N,N,N,N,N,Y,N,N,N,Y,,,,,관악구,서울특별시
FC003439,IVEX STUDIO,2.0,민간(대학로 외),2021.0,450.0,02-322-1112,https://ivexstudio.com/,경기도 광명시 양지로 17 (일직동),37.4186807,126.8828897,N,Y,N,N,N,N,N,N,N,Y,,,,,광명시,경기도
FC003573,아시아출판문화정보센터,1.0,민간(대학로 외),2003.0,0.0,031-955-0050,http://www.pajubookcity.org/Space/AsiaPublicationCulture#thirdPage,경기도 파주시 회동길 145 (문발동),37.7084812,126.6867933,N,N,N,N,N,N,N,N,N,N,,,,,파주시,경기도
FC001177,광화문아트홀,1.0,공공(문예회관),2008.0,340.0,,,서울특별시 종로구 인왕산로1길 21 (사직동),37.5742102,126.9646484,N,N,N,N,N,Y,Y,Y,N,N,,,,,종로구,서울특별시
FC000136,수정청소년수련관,1.0,공공(기타),1994.0,412.0,031-729-9200,https://www.snyouth.or.kr/snyc/index.do,경기도 성남시 수정구 희망로509번길 20 (신흥동),37.4485088,127.14921549999995,Y,N,N,N,N,Y,N,N,N,Y,,,,,성남시,경기도
FC003454,뭇(moot),1.0,민간(대학로 외),,0.0,010-6698-2415,,서울특별시 강남구 강남대로162길 41-15 (신사동),37.5217066,127.021036,N,N,N,N,N,N,N,N,N,N,,,,,강남구,서울특별시
FC002221,월서울 (wall.seoul),1.0,기타(비공연장),2018.0,110.0,02-466-8082,https://www.facebook.com/pages/category/Arts---Entertainment/wallseoul-293618071402567/,서울특별시 성동구 성수이로 65 (성수동2가),37.5410211,127.0555031,N,Y,N,N,N,N,N,N,N,Y,,,,,성동구,서울특별시
FC002226,광야아트센터,1.0,민간(대학로 외),2019.0,216.0,02-741-9182,https://stgwangya.modoo.at/,서울특별시 강남구 선릉로 806 (청담동),37.5238653,127.0396166,N,Y,N,Y,Y,N,Y,Y,Y,Y,,,,,강남구,서울특별시
FC002090,CLUB bender(클럽 벤더),1.0,민간(대학로 외),,0.0,02-6406-5646,,서울특별시 마포구 와우산로14길 4 (상수동) 지하1층,37.5500517,126.923351,N,N,N,N,N,N,N,N,N,N,,,,,마포구,서울특별시
FC003643,경기대학교 퍼포먼스홀,1.0,공공(기타),,0.0,,,서울특별시 서대문구 경기대로9길 63 (충정로3가),37.5640778,126.9606438,N,N,N,N,N,N,N,N,N,N,,,,,서대문구,서울특별시
FC003298,플레이그라운드 브루어리,1.0,민간(대학로 외),,0.0,,,경기도 고양시 일산서구 이산포길 246-11(법곳동),37.667533,126.7018167,N,N,N,N,N,N,N,N,N,N,,,,,고양시,경기도
FC001958,반포심산아트홀,1.0,공공(기타),2011.0,405.0,02-3477-2666,www.seochocf.or.kr,서울특별시 서초구 사평대로 55 (반포동),37.4988598,126.9905166,N,N,N,N,N,Y,Y,N,N,Y,,,,,서초구,서울특별시
FC003616,RCM 스튜디오,1.0,민간(대학로 외),,20.0,,http://www.rcm-studio.co.kr/,서울특별시 성동구 왕십리로 58 (성수동1가),37.5426959,127.0452053,N,N,N,N,N,N,N,N,N,Y,,,,,성동구,서울특별시
FC001863,롯데백화점 문화홀 [평촌],1.0,민간(대학로 외),,420.0,031-8086-0728,https://www.lotteshopping.com/branchShopGuide/floorGuideSub,경기도 안양시 동안구 시민대로 180 (호계동),37.3918595,126.9571155,Y,Y,N,N,Y,Y,N,N,N,Y,,,,,안양시,경기도
FC002417,라까사 호텔 [서울],1.0,기타(비공연장),,30.0,02-6711-9000,https://www.hotellacasa.kr/,서울특별시 강남구 도산대로1길 83 (신사동),37.521989,127.0195476,Y,N,N,N,N,Y,Y,Y,N,Y,,,,,강남구,서울특별시
FC002399,세종대학교 광개토관,2.0,민간(대학로 외),,3060.0,02-3408-3114,http://www.sejong.ac.kr/sejong/oncampus_03.html,서울특별시 광진구 능동로 209 (군자동),37.5506912,127.0741193,Y,Y,Y,N,N,Y,Y,Y,Y,Y,,,,,광진구,서울특별시
FC003752,허클베리핀 작업실,1.0,기타(비공연장),,0.0,,,서울특별시 서대문구 연희로 227 (연희동) 러브아트빌딩 신관 지하3층,37.5773962,126.9354279,N,N,N,N,N,N,N,N,N,N,,,,,서대문구,서울특별시
FC002005,슈피겐홀,1.0,민간(대학로 외),2018.0,72.0,02-6713-6410,https://hall.modoo.at/,서울특별시 강남구 봉은사로 446 (삼성동),37.5113308,127.0484368,N,Y,N,N,N,Y,Y,N,Y,Y,,,,,강남구,서울특별시
FC003008,월드케이팝센터,1.0,민간(대학로 외),,0.0,,http://w-kpop.com/,서울특별시 중구 장충단로 72(장충동2가),37.5516384,127.0025232,N,N,N,N,N,N,N,N,N,N,,,,,중구,서울특별시
FC002261,이충문화체육센터,1.0,공공(기타),,1757.0,031-8024-7440,https://www.pyeongtaek.go.kr/pyeongtaek/contents.do?mId=1404000000,경기도 평택시 장안웃길 149 (이충동),37.0650848,127.0723579,N,N,N,N,N,Y,Y,N,Y,Y,,,,,평택시,경기도
FC002615,화성종합경기타운,2.0,기타(비공연장),2011.0,40423.0,031-371-0011,https://www.hsuco.or.kr/www/M040000/M040500/M0405007/M04050071.jsp,경기도 화성시 향남읍 향남로 470,37.1375438,126.9242565,N,N,N,N,N,Y,N,N,N,Y,,,,,화성시,경기도
FC001859,JS아트홀 (구. 고스트씨어터 구.다소니씨어터),1.0,민간(대학로),2018.0,200.0,070-7733-7198,,서울특별시 종로구 동숭길 94 (동숭동),37.5824158,127.004328,N,N,N,N,N,N,N,N,N,N,,,,,종로구,서울특별시
FC001991,송도케이라이브극장,1.0,민간(대학로 외),,116.0,032-765-1532,https://klivesongdo.modoo.at/,인천광역시 연수구 송도과학로16번길 33-4 (송도동),37.3786776,126.6627964,Y,Y,N,N,N,Y,N,N,N,Y,,,,,연수구,인천광역시
FC003378,스튜디오 일상,1.0,민간(대학로 외),,0.0,,,서울특별시 성북구 삼선교로10길 3(삼선동2가),37.5878433,127.0089396,N,N,N,N,N,N,N,N,N,N,,,,,성북구,서울특별시
FC002361,반쥴,1.0,기타(비공연장),,70.0,02-735-5437,http://www.banjul.co.kr/,서울특별시 종로구 삼일대로17길 23 (관철동),37.5690724,126.9861858,N,Y,N,N,N,N,N,N,N,N,,,,,종로구,서울특별시
FC002038,채널 1969,1.0,민간(대학로 외),,150.0,010-5581-1112,https://www.instagram.com/channel1969.seoul/,서울특별시 마포구 연희로 35 (연남동),37.5619544,126.9269742,N,Y,N,N,N,Y,N,N,N,Y,,,,,마포구,서울특별시
FC003414,M50클럽,1.0,민간(대학로),,0.0,,,서울특별시 마포구 월드컵북로6길 60 (동교동),37.5592749,126.9216589,N,N,N,N,N,N,N,N,N,N,,,,,마포구,서울특별시
FC001914,안양종합운동장,1.0,공공(기타),1986.0,6690.0,031-389-5227,https://www.auc.or.kr/aysc/main/view,경기도 안양시 동안구 평촌대로 389 (비산동),37.405515,126.94769,N,N,N,N,N,Y,N,N,N,Y,,,,,안양시,경기도
FC002325,식스티세컨즈 라운지,1.0,기타(비공연장),,50.0,02-2076-6060,https://www.60s.co.kr/,서울특별시 용산구 장문로 29 (동빙고동),37.5283371,126.993918,N,N,N,N,N,N,N,N,N,Y,,,,,용산구,서울특별시
FC003476,SILICA GEL VINYL POP-UP,1.0,기타(비공연장),,100.0,,,서울특별시 마포구 와우산로33길 27 (서교동),37.5555529,126.9288875,N,N,N,N,N,N,N,N,N,N,,,,,마포구,서울특별시
FC001838,베짱이홀,1.0,민간(대학로 외),2013.0,200.0,02-322-4241,http://bezzang-e.com/,서울특별시 마포구 독막로15길 3-12 (상수동),37.5484185,126.92151160000004,N,N,N,N,N,N,N,N,N,N,,,,,마포구,서울특별시
FC002048,클럽 스틸페이스,1.0,민간(대학로 외),2010.0,1500.0,010-7430-6640,http://steelface.com/,서울특별시 마포구 잔다리로 10 (서교동),37.5509086,126.9220238,Y,Y,N,N,N,N,N,N,N,N,,,,,마포구,서울특별시
FC000840,계양문화회관,1.0,공공(문예회관),1997.0,795.0,032-551-6602,http://www.gysiseol.or.kr/culturebuilding/main/index.php,인천광역시 계양구 계양산로35번길 11 (계산동),37.5461360583772,126.718079789918,N,N,N,N,N,Y,N,N,N,Y,,,,,계양구,인천광역시
FC002293,클럽 MODECi(모데시),1.0,민간(대학로 외),,0.0,010-9247-0895,https://www.facebook.com/club.MODECi,서울특별시 마포구 와우산로 64 (상수동),37.5502427,126.9232874,N,N,N,N,N,N,N,N,N,N,,,,,마포구,서울특별시
FC001975,톤스튜디오 서울,1.0,민간(대학로 외),2002.0,39.0,02-3141-4605,http://tonestudio.co.kr/,서울특별시 마포구 성미산로 64-5 (성산동),37.5593835,126.9154822,N,N,N,N,N,N,Y,Y,N,Y,,,,,마포구,서울특별시
FC003467,리엠아트센터 LEEAM ART CENTER,2.0,민간(대학로 외),,270.0,,,서울특별시 강남구 학동로2길 56 (논현동),37.5079364,127.0235958,N,N,N,N,N,N,N,N,N,N,,,,,강남구,서울특별시
FC002314,서수원칠보체육관,1.0,공공(기타),2016.0,4036.0,031-259-5400,https://www.suwonudc.co.kr/suwonsc2/mainPage.do,경기도 수원시 권선구 서수원로577번길 171 (금곡동),37.2756255,126.9481651,N,Y,N,N,N,Y,N,N,N,Y,,,,,수원시,경기도
FC000738,부암아트홀,1.0,민간(대학로 외),1995.0,120.0,02-391-9631,,서울특별시 종로구 자하문로 242 (부암동),37.595711,126.9640743,Y,N,N,N,N,N,N,N,N,Y,,,,,종로구,서울특별시
FC003620,스튜디오 별감,1.0,민간(대학로 외),2023.0,0.0,,https://www.byulgam.com/,서울특별시 마포구 월드컵로5길 20 (합정동),37.5519606,126.9112206,N,N,N,N,N,N,N,N,N,Y,,,,,마포구,서울특별시
FC002402,롯데시네마 [월드타워],21.0,기타(비공연장),,4276.0,00-1544-8855,https://www.lottecinema.co.kr/NLCHS/Cinema/Detail?divisionCode=2&detailDivisionCode=0941&cinemaID=1016,서울특별시 송파구 올림픽로 300 (신천동),37.5131011,127.1034317,Y,Y,Y,N,N,Y,Y,Y,Y,Y,,,,,송파구,서울특별시
FC002323,라이브클럽 협동조합,1.0,기타(비공연장),,0.0,02-322-2218,http://xindieticket.kr/,서울특별시 마포구 어울마당로 61 (서교동),37.5505007,126.9210012,N,N,N,N,N,N,N,N,N,N,,,,,마포구,서울특별시
FC003633,서대문독립공원,1.0,국립,1992.0,0.0,,,서울특별시 서대문구 통일로 251 (현저동),37.5746085,126.9556118,N,N,N,N,N,N,N,N,N,N,,,,,서대문구,서울특별시
FC001893,건설회관,1.0,민간(대학로 외),,674.0,,,서울특별시 강남구 언주로 711 (논현동),37.5173236,127.03414799999996,Y,Y,N,N,N,Y,N,N,N,Y,,,,,강남구,서울특별시
FC002165,오남도서관,1.0,공공(기타),2010.0,310.0,031-590-8531,https://lib.nyj.go.kr/onam/index.jsp,경기도 남양주시 오남읍 양지로240번길 12,37.6980539,127.198237,N,N,Y,N,Y,Y,Y,N,N,Y,,,,,남양주시,경기도
FC003603,연극패 청년,1.0,민간(대학로 외),,10.0,010-2634-7976,,서울특별시 영등포구 양산로 150 (당산동1가),37.5234207,126.8996307,N,N,N,N,N,N,N,N,N,N,,,,,영등포구,서울특별시
FC003299,롯데백화점 문화홀 [김포공항],1.0,민간(대학로 외),,336.0,00-1577-0001,https://www.lotteshopping.com/branchShopGuide/floorGuideSub?cstr=0340,서울특별시 강서구 하늘길 지하77(방화동),37.5623132,126.8012784,Y,Y,N,Y,Y,Y,Y,Y,Y,Y,,,,,강서구,서울특별시
FC001835,하하하 소극장,1.0,민간(대학로 외),2017.0,71.0,032-715-8357,,인천광역시 부평구 부평문화로 77 (부평동),37.4942691,126.72490419999995,N,N,N,N,N,N,N,N,N,N,,,,,부평구,인천광역시
FC003656,성수문화예술마당(구.삼표 레미콘부지),1.0,민간(대학로 외),2023.0,0.0,,,서울특별시 성동구 고산자로 71 (성수동1가),37.5456933,127.0360891,N,N,N,N,N,N,N,N,N,N,,,,,성동구,서울특별시
FC001847,을지공간,1.0,민간(대학로 외),2018.0,50.0,010-2104-7293,https://www.euljispace.com/,서울특별시 중구 창경궁로5길 5 (을지로4가),37.5670744,126.9976782,N,Y,N,N,N,N,N,N,N,N,,,,,중구,서울특별시
FC002319,문악HOM,1.0,민간(대학로 외),2019.0,20.0,02-337-9966,https://moonak.modoo.at/,서울특별시 마포구 양화로15안길 6 (서교동),37.554442,126.9188694,N,N,N,N,N,N,N,N,N,N,,,,,마포구,서울특별시
FC003601,극단틈새소극장,1.0,민간(대학로 외),2012.0,56.0,010-3286-7993,,서울특별시 관악구 남부순환로 1695 (봉천동),37.483917,126.9388891,N,N,N,N,N,N,N,N,N,N,,,,,관악구,서울특별시
FC000161,민속극장풍류,1.0,공공(기타),1997.0,164.0,02-3011-2178,http://www.chf.or.kr/c4/sub1.jsp,서울특별시 강남구 봉은사로 406 (삼성동),37.5101779,127.04462250000006,N,N,N,N,N,N,N,N,N,Y,,,,,강남구,서울특별시
FC001814,북극곰소극장(구.아뮤스소극장),1.0,민간(대학로),2019.0,37.0,010-4293-5155,https://bookbear23.modoo.at/,서울특별시 종로구 이화장1길 24 (이화동),37.5773694,127.00575709999998,N,N,N,N,N,N,Y,N,N,N,,,,,종로구,서울특별시
FC002316,취향관 (폐관),1.0,민간(대학로 외),2018.0,30.0,02-332-3181,https://www.project-chwihyang.com/,서울특별시 마포구 월드컵로5길 20 (합정동),37.5518885,126.9112265,N,Y,N,N,N,N,N,N,N,N,,,,,마포구,서울특별시
FC003513,쎄서미 뮤지엄,1.0,민간(대학로 외),2022.0,100.0,070-7719-0777,https://www.sesamemuseum.com/,"인천광역시 연수구 인천타워대로 253-25 (송도동, 아트윈 푸르지오)",37.4101014,126.6782749,N,N,N,N,N,N,N,N,N,N,,,,,연수구,인천광역시
FC003596,살라1,1.0,민간(대학로 외),,0.0,,,서울특별시 마포구 동교로 47 (망원동),37.5530351,126.9074272,N,N,N,N,N,N,N,N,N,N,,,,,마포구,서울특별시
FC003402,인하대학교,1.0,기타(비공연장),,0.0,,,인천광역시 미추홀구 인하로 100 (용현동),37.451448,126.6515423,N,N,N,N,N,N,N,N,N,N,,,,,미추홀구,인천광역시
FC000210,신촌아트레온,2.0,기타(비공연장),2012.0,220.0,02-364-8900,http://blog.naver.com/movingon12,서울특별시 서대문구 신촌로 129 (창천동),37.5564776,126.94021739999994,N,N,N,N,N,N,N,N,N,Y,,,,,서대문구,서울특별시
FC001811,KOCCA콘텐츠문화광장,1.0,공공(기타),2017.0,193.0,02-6310-0776,https://edu.kocca.kr/testbed/main/main.do,서울특별시 동대문구 회기로 66 (청량리동),37.590963,127.044576,N,N,N,N,N,Y,Y,Y,Y,Y,,,,,동대문구,서울특별시
FC001885,JDB스퀘어,1.0,민간(대학로 외),2018.0,120.0,02-332-6967,,서울특별시 마포구 잔다리로 31 (서교동),37.551302,126.92005540000002,N,Y,N,N,N,N,N,N,N,N,,,,,마포구,서울특별시
FC002365,에이아트스튜디오(A art studio),1.0,기타(비공연장),,0.0,010-6632-2584,http://a-artstudio.com/,서울특별시 강남구 논현로 130 (도곡동),37.4814806,127.0434881,N,N,N,N,N,N,N,N,N,Y,,,,,강남구,서울특별시
FC002288,호은성,1.0,기타(비공연장),,0.0,02-6403-3222,,서울특별시 서초구 서래로 31 (반포동),37.4980239,126.9981182,N,N,N,N,N,N,N,N,N,N,,,,,서초구,서울특별시
FC001066,북촌창우극장,1.0,민간(대학로 외),1993.0,100.0,02-747-3809,https://bcchangwoo.modoo.at/,서울특별시 종로구 창덕궁길 29-6 (원서동),37.5788675,126.98884450000004,N,N,N,N,N,N,N,N,N,N,,,,,종로구,서울특별시
FC003524,종로인사동일대,1.0,기타(비공연장),,0.0,,,서울특별시 종로구 대학로5길 57 (연건동),37.5765586,127.00145,N,N,N,N,N,N,N,N,N,N,,,,,종로구,서울특별시
FC002333,인천문화아트홀,1.0,민간(대학로 외),,50.0,010-2023-1774,,인천광역시 남동구 문화로 119 (구월동) 지하1층,37.4497005,126.6993338,N,N,N,N,N,Y,N,N,N,Y,,,,,남동구,인천광역시
FC003626,직장인극단 함바꿈,1.0,민간(대학로 외),2000.0,10.0,010-3286-7993,,경기도 부천시 석천로2번길 83 (상동),37.4871416,126.7642874,N,N,N,N,N,N,N,N,N,N,,,,,부천시,경기도
FC001818,공감센터,1.0,민간(대학로 외),2006.0,1024.0,02-2234-5211,https://jctown.modoo.at/,서울특별시 중구 퇴계로88길 38 (신당동),37.5640044,127.02019799999994,N,Y,N,N,N,N,Y,N,N,N,,,,,중구,서울특별시
FC003787,경로당,1.0,기타(비공연장),,0.0,,,서울특별시 은평구 통일로 935 (갈현동),37.6265092,126.9195228,N,N,N,N,N,N,N,N,N,N,,,,,은평구,서울특별시
FC002304,게토얼라이브,1.0,민간(대학로 외),,75.0,02-461-1125,https://www.ghettoalive.com/,서울특별시 성동구 왕십리로 104 (성수동1가) 정일빌딩,37.5468641,127.0448704,N,N,N,N,N,N,N,N,N,N,,,,,성동구,서울특별시
FC001815,마루아트홀,1.0,민간(대학로),2018.0,170.0,070-4618-5753,https://www.instagram.com/my_ps_partner_maruart/,서울특별시 종로구 대학로8가길 30 (동숭동),37.582253,127.0025458,N,N,N,N,N,N,N,N,N,N,,,,,종로구,서울특별시
FC003772,디오니소스라운지,1.0,기타(비공연장),,0.0,,,서울특별시 강남구 강남대로 548 (논현동),37.5110346,127.0218871,N,N,N,N,N,N,N,N,N,N,,,,,강남구,서울특별시
FC002187,클럽 페이더,1.0,기타(비공연장),,0.0,010-5244-9455,http://fader.co.kr/,서울특별시 용산구 우사단로 43 (이태원동) 지하1층,37.5341504,126.9954291,N,N,N,N,N,N,N,N,N,N,,,,,용산구,서울특별시
FC003361,공간 아진,1.0,민간(대학로 외),,0.0,,https://www.instagram.com/space_ajin/,서울특별시 동작구 사당로30길 163(사당동),37.4774867,126.9807836,N,N,N,N,N,N,N,N,N,N,,,,,동작구,서울특별시
FC003768,이동형공연(수유동일대),1.0,기타(비공연장),,0.0,,,서울특별시 강북구 도봉로 지하198 (미아동),37.6264436,127.0261034,N,N,N,N,N,N,N,N,N,N,,,,,강북구,서울특별시
FC002153,문화비축기지,6.0,공공(기타),,11180.0,02-376-8410,http://parks.seoul.go.kr/template/sub/culturetank.do,서울특별시 마포구 증산로 87 (성산동),37.5716073,126.895369,N,N,N,N,N,Y,Y,N,N,Y,,,,,마포구,서울특별시
FC001836,경기상상캠퍼스 M3,3.0,공공(기타),2016.0,276.0,031-296-1980,http://sscampus.kr/,경기도 수원시 권선구 서둔로 166 (서둔동),37.2629491,126.9817372,N,Y,N,N,N,Y,N,N,N,Y,,,,,수원시,경기도
FC003462,스케치홀 (구.소극장 선물 1관),2.0,민간(대학로),,20.0,,,서울특별시 종로구 동숭길 145 (동숭동),37.5831766,127.0022799,N,N,N,N,N,N,N,N,N,N,,,,,종로구,서울특별시
FC002347,Cafe vave(베이브),1.0,기타(비공연장),,0.0,02-6404-3737,https://www.instagram.com/cafe_vave/,서울특별시 마포구 월드컵북로4길 29 (동교동),37.5576726,126.9210525,N,Y,N,N,N,N,N,N,N,N,,,,,마포구,서울특별시
FC001880,엘리펀트스페이스,1.0,민간(대학로 외),2018.0,40.0,02-332-4594,https://www.elespace.io/site/page/e/index/elespace,서울특별시 마포구 성미산로29길 30 (연남동),37.5552971,126.91601390000004,N,N,N,N,N,N,N,N,N,N,,,,,마포구,서울특별시
FC000835,강동어린이회관,1.0,공공(기타),2007.0,162.0,02-486-3516,http://www.gdkids.or.kr/,서울특별시 강동구 성내로6길 16 (성내동),37.5291338,127.12237800000004,N,Y,N,Y,Y,N,N,N,N,Y,,,,,강동구,서울특별시
FC003472,앤트러사이트 [서교],1.0,기타(비공연장),,0.0,,,서울특별시 마포구 월드컵로12길 11 (서교동),37.5555199,126.9116881,N,N,N,N,N,N,N,N,N,N,,,,,마포구,서울특별시
FC002385,비플러스엠,1.0,기타(비공연장),,0.0,02-336-7181,http://www.bplusm.co.kr/,서울특별시 마포구 마포대로16길 7-14 (아현동),37.5511066,126.9567567,N,Y,N,N,N,N,N,N,N,N,,,,,마포구,서울특별시
FC002124,반얀트리 클럽 앤 스파 [서울],3.0,기타(비공연장),2010.0,250.0,02-2250-8000,http://www.banyantreeclub.com/kr/facilities/the-oasis.asp,서울특별시 중구 장충단로 60 (장충동2가),37.550264,127.0005387,Y,N,N,N,N,N,N,N,N,Y,,,,,중구,서울특별시
FC001624,K-POP STAGE (구. 윤형빈소극장 [홍대] ),1.0,민간(대학로 외),2015.0,0.0,,https://www.instagram.com/kpop_stage__/,서울특별시 마포구 와우산로21길 29 (서교동),37.5521866,126.9223673,N,N,N,N,N,N,N,N,N,N,,,,,마포구,서울특별시
FC002384,KG타워,1.0,기타(비공연장),,300.0,02-1588-7890,,서울특별시 중구 통일로 92 (순화동),37.5636128,126.9692588,N,Y,N,N,N,Y,N,Y,Y,Y,,,,,중구,서울특별시
FC002049,잠실학생체육관,1.0,공공(기타),1977.0,5400.0,02-422-2285,https://ssg.sen.go.kr/fus/MI000000000000000383/html/cont0010v.do,서울특별시 송파구 올림픽로 25 (잠실동),37.5164791,127.0729996,N,N,Y,N,N,Y,Y,Y,N,Y,,,,,송파구,서울특별시
FC003519,스페이스클라우드,1.0,민간(대학로 외),2013.0,15.0,,https://www.spacecloud.kr/space/42461,서울특별시 종로구 평창30길 15 (평창동),37.6111584,126.9747382,N,Y,N,N,N,N,N,N,N,Y,,,,,종로구,서울특별시
FC001853,언더스탠드에비뉴(신한두드림스페이스),1.0,민간(대학로 외),2017.0,120.0,02-725-5526,http://www.understandavenue.com/,서울특별시 성동구 왕십리로 63 (성수동1가),37.543443800000006,127.04450969999994,Y,Y,N,N,N,N,N,N,N,N,,,,,성동구,서울특별시
FC000303,작은극장 돌체,1.0,민간(대학로 외),2007.0,96.0,032-772-7361,http://www.clownmime.co.kr/,인천광역시 미추홀구 매소홀로 573 (문학동),37.438755,126.68573600000002,N,N,N,N,N,N,Y,N,Y,Y,,,,,미추홀구,인천광역시
FC002370,그레뱅뮤지엄,1.0,기타(비공연장),,120.0,02-777-4700,https://blog.naver.com/grevinseoul,서울특별시 중구 을지로 23 (을지로1가),37.5663398,126.9804046,N,Y,N,N,N,N,N,N,N,Y,,,,,중구,서울특별시
FC003665,씨드큐브 창동,1.0,민간(대학로 외),2023.0,0.0,,https://seedcubechangdong.com/,서울특별시 도봉구 마들로13길 61 (창동),37.6545399,127.0499263,Y,Y,Y,N,N,N,N,N,N,Y,,,,,도봉구,서울특별시
FC001862,허수아비소극장,1.0,민간(대학로),2018.0,30.0,010-5652-4807,https://hursootheater.modoo.at/,서울특별시 종로구 성균관로3길 20-4 (명륜3가),37.583318899999995,126.9970075,N,Y,N,N,N,N,N,N,N,Y,,,,,종로구,서울특별시
FC002303,클럽 A.O.R(All Of Rock),1.0,민간(대학로 외),,70.0,010-5500-8711,http://www.allofrock.co.kr/,서울특별시 마포구 와우산로 156 (서교동),37.5548494,126.9304125,N,N,N,N,N,N,N,N,N,Y,,,,,마포구,서울특별시
FC001634,얘기아트씨어터,1.0,민간(대학로 외),2011.0,80.0,02-2138-2995,http://cafe.naver.com/yat21382995,서울특별시 마포구 고산길 30 (노고산동),37.5537508,126.93880719999991,N,N,N,N,N,N,N,N,N,N,,,,,마포구,서울특별시
FC002197,당신의 여름,1.0,기타(비공연장),2014.0,50.0,070-4176-3311,http://www.yoursummer.net/,서울특별시 마포구 연남로3길 43-6 (연남동),37.5601301,126.920321,N,N,N,N,N,N,N,N,N,Y,,,,,마포구,서울특별시
FC003393,앤트러사이트 [합정],1.0,기타(비공연장),,0.0,02-336-7850,https://anthracitecoffee.com/hapjeong,서울특별시 마포구 토정로5길 10 (합정동),37.545819,126.9184341,N,Y,N,N,N,N,N,N,N,N,,,,,마포구,서울특별시
FC003394,앤트러사이트 [한남],1.0,기타(비공연장),,0.0,02-797-7508,https://anthracitecoffee.com/hannam,서울특별시 용산구 이태원로 240 (한남동),37.5361092,127.0001638,N,N,N,N,N,N,N,N,N,N,,,,,용산구,서울특별시
FC002193,무대륙,1.0,기타(비공연장),2005.0,150.0,02-332-8333,https://www.facebook.com/Mudaeruk,서울특별시 마포구 토정로5길 12 (합정동),37.5459759,126.9184531,N,Y,N,N,N,N,N,N,N,Y,,,,,마포구,서울특별시
FC003661,더 리스닝 룸,1.0,기타(비공연장),,0.0,,,서울특별시 마포구 동교로23길 98-9 (연남동),37.5597045,126.9180521,N,N,N,N,N,N,N,N,N,N,,,,,마포구,서울특별시
FC001852,연희예술극장,1.0,민간(대학로 외),2018.0,100.0,010-3441-5877,http://yeonheeart.com/INTRO,서울특별시 서대문구 연희맛로 2-3 (연희동),37.5656012,126.92854110000007,N,Y,N,N,N,N,N,N,N,N,,,,,서대문구,서울특별시
FC002119,와부읍주민자치센터,1.0,공공(기타),2008.0,240.0,031-521-6801,http://www.wabujumin.or.kr/,경기도 남양주시 와부읍 월문천로 35 (덕소리),37.5854341,127.2169723,N,N,N,N,N,Y,N,Y,N,Y,,,,,남양주시,경기도
FC001482,현대백화점 문화홀 [신촌],1.0,민간(대학로 외),2013.0,420.0,02-3145-3453,http://www.ehyundai.com/newCulture/CW/CW000001_V.do,서울특별시 서대문구 신촌로 83 (창천동),37.5565228,126.93575850000002,N,N,N,N,N,N,N,N,N,Y,,,,,서대문구,서울특별시
FC002638,클럽레드존캠핑장,1.0,기타(비공연장),,0.0,,https://www.gocamping.or.kr/bsite/camp/info/read.do?c_no=3113,경기도 가평군 가평읍 북한강변로 360-69,37.7600599,127.541017,N,N,N,N,N,N,N,N,N,N,,,,,가평군,경기도
FC003654,청춘예찬,1.0,민간(대학로 외),,85.0,010-8567-5992,https://www.ccyc.live/,서울특별시 마포구 신촌로2안길 30 (동교동),37.5570317,126.9285622,N,N,N,N,N,N,N,N,N,N,,,,,마포구,서울특별시
FC001845,VERY (베리컴퍼니),2.0,민간(대학로),,266.0,02-3674-2525,,서울특별시 종로구 동숭3길 30 (동숭동),37.5822989,127.00477669999998,N,Y,N,N,N,N,Y,N,Y,N,,,,,종로구,서울특별시
FC002368,미스치프 플래그쉽 스토어,1.0,기타(비공연장),2019.0,0.0,070-8802-1992,http://www.mischief.co.kr/,서울특별시 강남구 압구정로46길 31 (신사동),37.526472,127.0362241,N,N,N,N,N,N,N,N,N,N,,,,,강남구,서울특별시
FC001704,수원화성행궁,2.0,공공(기타),1997.0,400.0,031-290-3600,http://www.swcf.or.kr/?p=62,경기도 수원시 팔달구 정조로 825 (남창동)경기도 수원시 팔달구 남창동  6-2 수원화성행궁,37.281792,127.01325199999997,N,N,N,N,N,Y,Y,Y,N,Y,,,,,수원시,경기도
FC003651,서울시립청소년음악센터,1.0,공공(기타),,160.0,02-6956-1870,https://symc.or.kr/,서울특별시 양천구 남부순환로 657 (신정동),37.5105883,126.8428707,N,N,N,N,N,N,N,N,N,N,,,,,양천구,서울특별시
FC001896,클럽 코쿤 (COCOON CLUB) (폐관),1.0,민간(대학로 외),,1000.0,011-454-6526,http://club.cyworld.com/cocoonmusic,서울특별시 마포구 와우산로21길 31 (서교동),37.552471,126.922158,N,N,N,N,N,N,N,N,N,N,,,,,마포구,서울특별시
FC002080,동덕여자대학교 백주년기념관,1.0,민간(대학로 외),,660.0,02-940-4000,,서울특별시 성북구 화랑로13길 60 (하월곡동),37.6063597,127.0418211,N,Y,N,N,N,Y,N,N,N,Y,,,,,성북구,서울특별시
FC003668,13블럭 소극장,1.0,민간(대학로 외),2023.0,60.0,010-7720-8607,https://www.instagram.com/play_block13/,경기도 고양시 일산동구 강촌로26번길 7-21 (백석동),37.6470888,126.7801102,N,N,N,N,N,N,N,N,N,Y,,,,,고양시,경기도
FC002278,스트레인지 프룻,1.0,기타(비공연장),,0.0,02-339-2919,,서울특별시 마포구 와우산로29길 64 (서교동),37.5562492,126.9267942,N,N,N,N,N,N,N,N,N,N,,,,,마포구,서울특별시
FC000065,한국문화의집 KOUS,1.0,공공(기타),2003.0,230.0,02-3011-1788,http://www.kous.or.kr,서울특별시 강남구 테헤란로92길 12-9 (대치동),37.506784499999995,127.06046089999997,N,N,N,N,N,N,N,N,N,Y,,,,,강남구,서울특별시
FC002147,안산상록수체육관,1.0,공공(기타),2013.0,2535.0,031-8085-7400,,경기도 안산시 상록구 용신로 422 (본오동),37.301135,126.8682284,N,N,N,N,N,Y,Y,Y,Y,Y,,,,,안산시,경기도
FC002148,부천종합운동장,1.0,공공(기타),2001.0,34456.0,032-340-0872,https://www.best.or.kr/fmcs/304,경기도 부천시 소사로 482 (춘의동),37.5031507,126.7989319,Y,Y,Y,N,N,Y,Y,Y,N,Y,,,,,부천시,경기도
FC003653,갤러리 산수,1.0,민간(대학로 외),,0.0,070-8202-4787,https://www.gallerysansu.com/,경기도 고양시 일산동구 산두로213번길 28 (정발산동),37.6743259,126.779578,N,N,N,N,N,N,N,N,N,N,,,,,고양시,경기도
FC003233,스와뉴 스튜디오,1.0,민간(대학로 외),,0.0,,,서울특별시 마포구 월드컵로25길 69(망원동),37.5576097,126.9039155,N,N,N,N,N,N,N,N,N,N,,,,,마포구,서울특별시
FC000804,가평문화예술회관,2.0,공공(문예회관),1998.0,891.0,031-8078-8076,https://www.gpfmc.or.kr/sub2/sub2_1-1.php,경기도 가평군 가평읍 문화로 131,37.825131,127.50623270000006,N,N,N,N,N,Y,N,Y,N,Y,,,,,가평군,경기도
FC003482,극단 제이와이,1.0,민간(대학로 외),,0.0,,https://theaterjy.modoo.at/,서울특별시 서대문구 신촌로 173-2 (대현동),37.5569788,126.9453455,N,N,N,N,N,N,N,N,N,N,,,,,서대문구,서울특별시
FC001705,소셜베뉴 라움,3.0,민간(대학로 외),2010.0,1562.0,02-538-3366,https://www.theraum.co.kr/,서울특별시 강남구 언주로 564 (역삼동) 라움아트센터,37.5081914,127.0395701,Y,N,N,N,N,N,N,N,N,Y,,,,,강남구,서울특별시
FC000082,CJ아지트 광흥창,1.0,민간(대학로 외),2009.0,250.0,02-3272-2616,https://www.cjazit.org/cjazit/1st,서울특별시 마포구 창전로 14 (신정동) CJ아지트,37.5442311,126.93044699999996,N,N,N,N,N,N,Y,N,N,N,,,,,마포구,서울특별시
FC003796,클럽 블랙 [홍대],1.0,민간(대학로 외),,0.0,,,서울특별시 마포구 와우산로 70 (서교동),37.5506993,126.923311,N,N,N,N,N,N,N,N,N,N,,,,,마포구,서울특별시
FC003786,원더랜드뮤직,1.0,민간(대학로 외),,50.0,,,서울특별시 서대문구 연희맛로 1 (연희동),37.5658849,126.9280928,N,N,N,N,N,N,N,N,N,N,,,,,서대문구,서울특별시
FC002364,그랜드하얏트서울,3.0,기타(비공연장),2019.0,715.0,02-797-1234,https://www.hyatt.com/ko-KR/hotel/south-korea/grand-hyatt-seoul/selrs,서울특별시 용산구 소월로 322 (한남동),37.5395421,126.997814,Y,Y,N,N,N,Y,N,N,N,Y,,,,,용산구,서울특별시
FC002358,카페쇼파르,1.0,기타(비공연장),,0.0,,,서울특별시 마포구 독막로6길 15 (합정동),37.5473196,126.9175644,N,Y,N,N,N,N,N,N,N,N,,,,,마포구,서울특별시
FC003782,윈드밀,1.0,기타(비공연장),,0.0,,,서울특별시 용산구 원효로 13 (청암동),37.534667,126.9461147,N,N,N,N,N,N,N,N,N,N,,,,,용산구,서울특별시
FC002083,인천아시아드주경기장,1.0,공공(기타),2014.0,29376.0,032-456-2100,https://www.insiseol.or.kr/sport/asiad/,인천광역시 서구 봉수대로 806 (연희동),37.5465314,126.6639609,N,N,N,N,N,Y,Y,N,N,Y,,,,,서구,인천광역시
FC002215,탈영역우정국,1.0,기타(비공연장),2015.0,80.0,02-336-8553,http://ujeongguk.com/,서울특별시 마포구 독막로20길 42 (창전동),37.5469478,126.9275954,N,N,N,N,N,N,N,Y,N,N,,,,,마포구,서울특별시
FC002003,DS ART HALL(창선당),1.0,민간(대학로 외),2014.0,137.0,02-2262-0144,http://www.changseondang.com,서울특별시 종로구 청계천로 279 (종로6가),37.5703955,127.0089108,Y,Y,N,N,N,Y,Y,Y,N,Y,,,,,종로구,서울특별시
FC003608,성균관대학교 경영관 소극장,1.0,민간(대학로 외),,0.0,02-760-0114,https://www.skku.ac.kr/,서울특별시 종로구 명륜3길 35-22 (명륜3가),37.588747,126.9919276,N,N,N,N,N,N,N,N,N,N,,,,,종로구,서울특별시
FC002214,버텀라인,1.0,민간(대학로 외),1983.0,60.0,032-766-8211,https://www.facebook.com/clubbottomline,인천광역시 중구 신포로23번길 23 (중앙동4가),37.471587,126.6235775,N,N,N,N,N,N,N,N,N,N,,,,,중구,인천광역시
FC001945,드림홀,1.0,민간(대학로 외),2014.0,150.0,010-6213-0001,https://cafe.naver.com/dreamlivehall,서울특별시 마포구 양화로 64 (서교동),37.5503019,126.9159023,N,N,N,N,N,N,N,N,N,Y,,,,,마포구,서울특별시
FC002055,NC소극장 [안산고잔],1.0,민간(대학로 외),,200.0,031-414-2100,https://blog.naver.com/manimani_ansan,경기도 안산시 단원구 광덕대로 194 (고잔동),37.3138933,126.8310464,Y,Y,Y,Y,Y,Y,N,N,N,Y,,,,,안산시,경기도
FC002353,다락스페이스,1.0,민간(대학로 외),,40.0,070-4402-6660,https://www.darakspace.com/,서울특별시 성동구 성수이로7길 24 (성수동2가),37.5414433,127.0543764,Y,Y,N,N,N,N,N,N,N,N,,,,,성동구,서울특별시
FC003504,기지촌여성평화박물관 일곱집매,1.0,기타(비공연장),,0.0,031-618-5535,,경기도 평택시 팽성읍 안정순환로126번길 25-4,36.9608545,127.0425407,N,N,N,N,N,N,N,N,N,N,,,,,평택시,경기도
FC003773,멜랑슈 스튜디오,1.0,기타(비공연장),,0.0,,,서울특별시 성북구 아리랑로2길 5 (동선동4가) 2층,37.5933135,127.0167424,N,N,N,N,N,N,N,N,N,N,,,,,성북구,서울특별시
FC002291,매직스트로베리사운드,1.0,기타(비공연장),,30.0,02-336-5422,http://www.msbsound.com/,서울특별시 마포구 와우산로29길 13,37.5552199,126.9291628,N,N,N,N,N,N,N,N,N,N,,,,,마포구,서울특별시
FC002651,1M SPACE (폐관),1.0,민간(대학로 외),2019.0,55.0,,https://yellowclip.space/,서울특별시 서대문구 연세로4길 27 (창천동),37.5576008,126.9381984,N,N,N,N,N,N,N,N,N,N,,,,,서대문구,서울특별시
FC001987,더켠 소극장,1.0,민간(대학로 외),2015.0,64.0,010-2878-9648,https://blog.naver.com/PostList.nhn?blogId=thekyun_theatre,서울특별시 강북구 도봉로13가길 6 (미아동),37.614822,127.0291132,N,N,N,N,N,N,N,N,N,N,,,,,강북구,서울특별시
FC003762,루프탑 투게더,1.0,기타(비공연장),,0.0,,https://www.instagram.com/rooftop_twogether,서울특별시 마포구 양화로21길 31 (동교동),37.5595016,126.9244982,N,N,N,N,N,N,N,N,N,N,,,,,마포구,서울특별시
FC001629,일신홀,1.0,민간(대학로 외),2009.0,189.0,02-790-3364,http://ilshinhall.com/,서울특별시 용산구 한남대로 98 (한남동),37.5372055,127.00552319999996,N,N,N,N,N,N,N,N,N,Y,,,,,용산구,서울특별시
FC001988,덜위치 칼리지 서울 영국학교,1.0,기타(비공연장),2010.0,300.0,02-3015-8500,https://seoul.dulwich.org/,서울특별시 서초구 신반포로15길 6 (반포동),37.5041723,126.9954219,N,N,N,N,N,Y,N,N,N,Y,,,,,서초구,서울특별시
FC003456,경민현대미술관,1.0,기타(비공연장),,0.0,,,"경기도 의정부시 시민로 24 (의정부동, 신도 아크라티움)",37.737859,127.037805,N,N,N,N,N,N,N,N,N,N,,,,,의정부시,경기도
FC001628,서울마포음악창작소(구.뮤지스땅스),1.0,민간(대학로 외),2014.0,50.0,02-313-7865,https://www.facebook.com/musistance,서울특별시 마포구 마포대로 238 (아현동) 지하,37.5551663,126.95762100000002,N,N,N,N,N,N,N,N,N,N,,,,,마포구,서울특별시
FC001982,로로스페이스,1.0,민간(대학로 외),2018.0,50.0,02-3443-5702,https://rorospace.modoo.at/,서울특별시 서초구 사평대로8길 6-3 (반포동),37.497703,126.9910847,N,N,N,N,N,N,N,N,N,Y,,,,,서초구,서울특별시
FC002088,문래재즈IN,1.0,민간(대학로 외),2012.0,60.0,02-2633-3025,https://blog.naver.com/mullaejazz,서울특별시 영등포구 도림로 475 (문래동4가),37.5161339,126.8906595,Y,Y,N,N,N,N,N,N,N,N,,,,,영등포구,서울특별시
FC003370,생츄어리(sanctuary),1.0,기타(비공연장),,0.0,,,서울특별시 마포구 월드컵북로 65(성산동),37.5596874,126.9165925,N,N,N,N,N,N,N,N,N,N,,,,,마포구,서울특별시
FC002625,보광극장,1.0,민간(대학로 외),2017.0,30.0,010-6246-2449,https://bktheater.modoo.at/,서울특별시 용산구 장문로19길 4 (보광동),37.5260989,126.9977628,N,N,N,N,N,N,N,N,N,Y,,,,,용산구,서울특별시
FC000890,롯데백화점 [구리],1.0,민간(대학로 외),2011.0,96.0,031-550-7580,,경기도 구리시 경춘로 261 (인창동),37.6026812,127.14377880000006,Y,Y,N,Y,Y,Y,Y,Y,Y,Y,,,,,구리시,경기도
FC003852,Naked Coffee,1.0,기타(비공연장),,50.0,010-7731-6865,,서울특별시 성동구 뚝섬로3길 13 (성수동1가),37.5413859,127.0492075,N,N,N,N,N,N,N,N,N,N,,,,,성동구,서울특별시
FC002663,NCD홀,1.0,민간(대학로 외),2019.0,40.0,031-717-4033,https://ncdhall.modoo.at/,경기도 성남시 분당구 방아로23번길 10 (이매동),37.3993087,127.1314166,N,N,N,N,N,N,N,N,N,N,,,,,성남시,경기도
FC003849,와우산레코드,1.0,민간(대학로 외),,0.0,,,"서울특별시 서대문구 홍제천로6길 11 (연희동, 아인빌딩)",37.5739601,126.9252081,N,N,N,N,N,N,N,N,N,N,,,,,서대문구,서울특별시
FC003855,송해아트홀,1.0,민간(대학로 외),2024.0,232.0,070-7790-0515,http://songhae.kr/?page_id=2509,서울특별시 구로구 경인로 611-17 (신도림동),37.5069406,126.8835704,N,N,N,N,N,N,N,N,N,Y,,,,,구로구,서울특별시
FC001940,2001 아울렛키즈홀 [구로],1.0,민간(대학로 외),2008.0,100.0,02-2093-5093,https://2001gurohall.modoo.at/?link=4ky4bxbz,서울특별시 구로구 중앙로1길 36 (고척동),37.4981036,126.8626627,Y,Y,Y,N,N,Y,N,N,Y,Y,,,,,구로구,서울특별시
FC002588,씨어터 쿰,1.0,민간(대학로),,111.0,02-6085-0015,,서울특별시 종로구 창경궁로 253-7 (명륜2가),37.5844442,126.9994928,N,N,N,N,N,N,N,N,N,Y,,,,,종로구,서울특별시
FC001478,아르떼홀,1.0,민간(대학로 외),2013.0,180.0,02-2128-3366,http://www.arte.co.kr/home/hall,서울특별시 마포구 양화진4길 32 - 0 (주)이토마토,37.5475608,126.91062390000002,N,N,N,N,N,Y,Y,Y,N,Y,,,,,마포구,서울특별시
FC000841,콘텐츠박스(구. 르메이에르 씨어터),1.0,민간(대학로),2006.0,196.0,02-747-2232,,서울특별시 종로구 동숭길 55 (동숭동),37.5807178,127.00416599999994,N,N,N,N,N,N,N,N,N,N,,,,,종로구,서울특별시
FC002069,서울혁신파크,2.0,공공(기타),2014.0,250.0,02-389-7512,https://www.innovationpark.kr/,서울특별시 은평구 통일로 684 (녹번동),37.6079916,126.9331536,Y,Y,N,N,Y,Y,Y,Y,N,Y,,,,,은평구,서울특별시
FC000666,문산행복센터,2.0,공공(문예회관),2011.0,563.0,031-950-1800,https://pajucf.or.kr:446/munsan/facility.php,경기도 파주시 문산읍 통일로 1680,37.8567239,126.7909181,Y,N,N,Y,Y,Y,N,Y,N,Y,,,,,파주시,경기도
FC001226,극장 동국,1.0,민간(대학로),2014.0,82.0,02-747-5296,https://www.facebook.com/PalyDongGuk,서울특별시 종로구 창경궁로 259,37.584514899999995,127.0000258,N,N,N,N,N,N,N,N,N,N,,,,,종로구,서울특별시
FC003892,옥타바리움 라이브홀,1.0,민간(대학로 외),,70.0,,https://octavarium.modoo.at/,서울특별시 마포구 와우산로18길 16 (서교동),37.5509163,126.9238938,N,N,N,N,N,N,N,N,N,N,,,,,마포구,서울특별시
FC004422,아르코 꿈밭극장,1.0,공공(기타),2024.0,169.0,02-3668-0007,https://theater.arko.or.kr/,서울특별시 종로구 대학로12길 46 (동숭동),37.582042,127.003731,N,N,N,N,N,N,N,N,N,N,,,,,종로구,서울특별시
FC003844,클럽 일마레,1.0,민간(대학로 외),,0.0,,https://www.instagram.com/club_ilmare/,서울특별시 마포구 포은로 75 (망원동),37.5538237,126.9055679,N,N,N,N,N,N,N,N,N,N,,,,,마포구,서울특별시
FC003847,위크앨리,1.0,기타(비공연장),,25.0,010-7273-9577,,서울특별시 종로구 계동길 77 (계동),37.5807718,126.986622,N,N,N,N,N,N,N,N,N,N,,,,,종로구,서울특별시
FC002583,복합문화공간 미인도,1.0,민간(대학로 외),2015.0,50.0,070-8644-8120,https://www.facebook.com/miarigoga,서울특별시 성북구 동소문로28길 36 (동선동3가),37.5954885,127.0205995,N,N,N,N,N,N,N,N,N,N,,,,,성북구,서울특별시
FC001405,GBB스페이스홀 (구. 임혁필소극장),1.0,민간(대학로 외),2012.0,100.0,02-541-0772,,서울특별시 마포구 포은로 14 (합정동),37.5493807,126.90933889999997,N,N,N,N,N,N,N,N,N,N,,,,,마포구,서울특별시
FC000741,윈씨어터(구. 대학로갈갈이홀),1.0,민간(대학로),2004.0,168.0,02-3661-8802,http://www.ggfamily.co.kr/,서울특별시 종로구 대학로8가길 111 (동숭동),37.5809987,127.0035232,N,N,Y,N,N,N,N,N,N,N,,,,,종로구,서울특별시
FC002708,룸어씨어터,1.0,민간(대학로),,130.0,010-7695-2335,,서울특별시 종로구 대학로8가길 30 (동숭동),37.582294,127.0025606,N,N,N,N,N,N,N,N,N,N,,,,,종로구,서울특별시
FC003831,아이다호,1.0,민간(대학로 외),,50.0,,,서울특별시 마포구 동교로 39 (망원동),37.5527761,126.9066057,N,N,N,N,N,N,N,N,N,N,,,,,마포구,서울특별시
FC001235,대학로 A아트홀(구. 신연아트홀),1.0,민간(대학로),2005.0,210.0,070-8270-3337,,서울특별시 종로구 동숭길 143 (동숭동),37.583226,127.00242409999998,Y,N,N,N,N,N,N,N,N,N,,,,,종로구,서울특별시
FC002742,극단 작은곰 연습실,1.0,민간(대학로 외),,0.0,010-3005-0687,https://jagunkom.modoo.at/,서울특별시 강남구 일원로3길 28 (일원동),37.4917745,127.082716,Y,Y,N,N,N,N,N,N,N,N,,,,,강남구,서울특별시
FC000227,미마지아트센터,3.0,민간(대학로),2008.0,382.0,02-6404-5005,http://www.mimagi.com/,서울특별시 종로구 혜화로 17 (명륜1가),37.5870645,126.99977209999996,N,N,N,N,N,N,N,N,N,N,,,,,종로구,서울특별시
FC002199,오드 포트(ODE PORT),1.0,민간(대학로 외),2018.0,70.0,02-512-4092,,서울특별시 강남구 도산대로25길 15-10 (신사동),37.5206578,127.0263074,N,Y,N,N,N,N,N,N,N,Y,,,,,강남구,서울특별시
FC000221,파랑새극장(구. 샘터파랑새극장),2.0,민간(대학로),1984.0,503.0,02-744-0015,http://www.parangsae.theater,서울특별시 종로구 대학로 116 (동숭동),37.5815334,127.00241119999998,N,N,N,N,N,N,N,N,N,N,,,,,종로구,서울특별시
FC003973,쉘터 & 페이퍼 (SHELTER & PAPER),2.0,민간(대학로 외),,0.0,,https://www.instagram.com/paper.seoul/,서울특별시 용산구 이태원로27가길 37 (이태원동),37.5348765,126.9930999,N,N,N,N,N,N,N,N,N,N,,,,,용산구,서울특별시
FC001119,삼형제극장(환상극장),1.0,민간(대학로),2009.0,130.0,02-6326-1333,http://cafe.naver.com/teum2013,서울특별시 종로구 이화장길 72 (동숭동),37.5784601,127.00463309999998,N,N,N,N,N,N,N,N,N,N,,,,,종로구,서울특별시
FC002453,판시어터,1.0,민간(대학로 외),,388.0,02-2125-4010,,서울특별시 종로구 삼일대로 386 (관철동),37.5689393,126.9882324,N,N,N,N,N,N,N,N,N,Y,,,,,종로구,서울특별시
FC001100,도곡2문화센터,1.0,공공(기타),2010.0,138.0,02-2176-0743,,서울특별시 강남구 남부순환로378길 34-9 (도곡동),37.4837128,127.04643740000006,N,N,N,N,N,Y,Y,Y,Y,Y,,,,,강남구,서울특별시
FC004130,동성고등학교,1.0,민간(대학로),,0.0,02-3671-9100,,서울특별시 종로구 대학로 156 (혜화동),37.58497,127.0030976,N,N,N,N,N,N,N,N,N,N,,,,,종로구,서울특별시
FC000576,NH아트홀,1.0,민간(대학로 외),2011.0,406.0,02-3143-5959,http://www.fanta-stick.co.kr/kor/fs1.html,서울특별시 중구 통일로 120 (충정로1가),37.5658125,126.9675261,N,N,N,N,N,Y,N,Y,N,Y,,,,,중구,서울특별시
FC001209,공간아울,1.0,민간(대학로),2010.0,172.0,02-3675-0116,,서울특별시 종로구 대학로 120 (동숭동),37.5818372,127.00227960000008,Y,N,N,N,N,N,N,N,N,N,,,,,종로구,서울특별시
FC003832,실험무대702,1.0,민간(대학로 외),,50.0,,,서울특별시 서대문구 홍제천로 116 (연희동),37.5751406,126.9269318,N,N,N,N,N,N,N,N,N,N,,,,,서대문구,서울특별시
FC003920,신세계백화점 본점,1.0,민간(대학로 외),,0.0,,,서울특별시 중구 소공로 63 (충무로1가),37.560919,126.980979,N,N,N,N,N,N,N,N,N,N,,,,,중구,서울특별시
FC002743,엠파이브(M5) 방송센터,1.0,민간(대학로 외),2016.0,300.0,00-1577-4196,http://mfive.tv/,경기도 파주시 문발로 220 (문발동),37.7138547,126.6878029,Y,Y,N,N,N,N,N,N,N,Y,,,,,파주시,경기도
FC002650,성음아트센터,3.0,민간(대학로 외),2019.0,372.0,031-703-2064,http://searts.or.kr/,경기도 성남시 분당구 판교역로14번길 15 (백현동),37.3850359,127.1109981,N,Y,N,N,N,N,N,N,N,N,,,,,성남시,경기도
FC002690,구세군아트홀,1.0,민간(대학로 외),,529.0,,,서울특별시 서대문구 충정로 7 (충정로3가),37.5601124,126.9622821,N,N,N,N,N,N,N,N,N,N,,,,,서대문구,서울특별시
FC003899,SX Seoul,1.0,민간(대학로 외),,0.0,,https://www.instagram.com/sxseoul/,서울특별시 용산구 이태원로 208 (한남동),37.5345405,126.9970562,N,N,N,N,N,N,N,N,N,N,,,,,용산구,서울특별시
FC001682,민송아트홀 (구. 브로드웨이아트홀),2.0,민간(대학로),2017.0,466.0,02-766-8134,http://www.semyung.ac.kr/smenter/sub05_01.do,서울특별시 종로구 대학로 144 (혜화동) 중원빌딩 6층,37.5839463,127.00204540000004,N,N,N,N,N,N,N,N,N,N,,,,,종로구,서울특별시
FC000163,게릴라극장 (폐관),1.0,민간(대학로),2006.0,75.0,02-763-1268,http://www.doyoart.com/guerilla/,서울특별시 종로구 혜화로6길 9 (혜화동),37.5874116,127.00043549999998,N,N,N,N,N,N,N,N,N,N,,,,,종로구,서울특별시
FC001251,순위아트홀(구. 네오아트홀) [강남],1.0,민간(대학로 외),2013.0,216.0,070-8857-4085,,서울특별시 서초구 강남대로 439 (서초동) 유화빌딩,37.5014992,127.02535490000002,N,N,N,N,N,N,N,N,N,N,,,,,서초구,서울특별시
FC002579,연희정원,1.0,민간(대학로 외),,90.0,02-2066-0010,http://yeonhuijw.com,서울특별시 서대문구 연희로11라길 10-8 (연희동),37.5684905,126.9303636,N,N,N,N,N,N,N,N,N,N,,,,,서대문구,서울특별시
FC004116,재난피해자권리센터 우리함께,1.0,기타(비공연장),,0.0,,,서울특별시 중구 창경궁로 6 (충무로5가),37.5629291,126.9988258,N,N,N,N,N,N,N,N,N,N,,,,,중구,서울특별시
FC003285,송도센트럴파크호텔,1.0,기타(비공연장),,0.0,,http://www.centralparkhotel.co.kr/,인천광역시 연수구 테크노파크로 193(송도동),37.3905141,126.6374027,N,N,N,N,N,N,N,N,N,N,,,,,연수구,인천광역시
FC002622,엠피엠지,1.0,기타(비공연장),1993.0,30.0,02-322-5684,https://www.mpmg.co.kr/m,서울특별시 마포구 서강로 78 (창전동),37.5500559,126.9325997,N,Y,N,N,N,N,N,N,N,Y,,,,,마포구,서울특별시
FC000188,한양레퍼토리씨어터,1.0,민간(대학로),2003.0,126.0,02-764-6460,http://www.hyrtheatre.com/theater/info.php,서울특별시 종로구 대학로 144 (혜화동) 중원빌딩 지하1층,37.5839463,127.00204540000004,N,N,N,N,N,N,N,N,N,N,,,,,종로구,서울특별시
FC002730,번동 금강빌라,1.0,기타(비공연장),,0.0,,,서울특별시 강북구 오현로25나길 34 (번동),37.6270038,127.0359197,N,N,N,N,N,N,N,N,N,N,,,,,강북구,서울특별시
FC003960,히든 사운드,1.0,민간(대학로 외),,0.0,,,경기도 화성시 지산1길 22-4 (영천동),37.2082325,127.1122574,N,N,N,N,N,N,N,N,N,N,,,,,화성시,경기도
FC001158,충정로난타전용관 (폐관),1.0,민간(대학로 외),2013.0,554.0,02-739-8288,http://nanta.i-pmc.co.kr/Nanta/kr/About/nantaTheater03.aspx,서울특별시 서대문구 충정로 7 (충정로3가),37.5601329,126.96223550000002,N,N,N,N,N,N,N,N,N,N,,,,,서대문구,서울특별시
FC002700,코사이어티,1.0,민간(대학로 외),,0.0,,https://www.cociety.co.kr/,서울특별시 성동구 왕십리로 82-20 (성수동1가),37.544865,127.0457156,N,N,N,N,N,N,N,N,N,N,,,,,성동구,서울특별시
FC003566,원효로 예수성심성당,1.0,기타(비공연장),,0.0,,,서울특별시 용산구 원효로19길 49 (원효로4가),37.5342094,126.9545934,N,N,N,N,N,N,N,N,N,N,,,,,용산구,서울특별시
FC003577,고양종합운동장,4.0,기타(비공연장),2003.0,51459.0,,,경기도 고양시 일산서구 중앙로 1601 (대화동),37.6763871,126.7420729,N,N,N,N,N,N,N,N,N,N,,,,,고양시,경기도
FC004067,Bibistudio,1.0,민간(대학로 외),,12.0,,,서울특별시 은평구 갈현로 250 (갈현동),37.6191498,126.915675,N,N,N,N,N,N,N,N,N,N,,,,,은평구,서울특별시
FC001218,드림시어터 [대학로],1.0,민간(대학로),2012.0,126.0,010-3749-0221,https://bulltheatre.modoo.at/?link=cb6i15sg,서울특별시 종로구 대학로10길 15 - 11,37.5822206,127.00276359999998,N,N,N,N,N,N,N,N,N,N,,,,,종로구,서울특별시
FC002589,성수 소극장(일루미 스튜디오),1.0,민간(대학로 외),2019.0,90.0,02-6396-5785,https://blog.naver.com/illumestudio,서울특별시 성동구 성덕정길 135-1 (성수동2가),37.5366733,127.0584054,N,N,N,N,N,N,N,N,N,N,,,,,성동구,서울특별시
FC002441,카비네,1.0,기타(비공연장),,10.0,010-8724-0529,https://cabinetcabinet.kr/,서울특별시 종로구 북촌로6길 30 (계동),37.5802772,126.9864102,N,N,N,N,N,N,N,N,N,N,,,,,종로구,서울특별시
FC002355,이화여자대학교 대강당,1.0,민간(대학로 외),1956.0,2900.0,02-3277-3119,http://www.ewha.ac.kr/ewha/index.do#menu,서울특별시 서대문구 이화여대길 52 (대현동),37.5625599,126.9474554,Y,Y,Y,N,N,Y,N,N,N,Y,,,,,서대문구,서울특별시
FC000360,라이브 썸데이즈홀 (구. 이수ENT),2.0,민간(대학로),2011.0,350.0,00-1661-3124,,서울특별시 종로구 대학로12길 10 지하1층,37.58249970000001,127.00263310000003,N,N,N,N,N,N,N,N,N,N,,,,,종로구,서울특별시
FC002631,허리우드극장 (구. 모두의극장),1.0,민간(대학로 외),,386.0,02-742-4231,,서울특별시 종로구 삼일대로 428 (낙원동),37.5727635,126.9879025,N,N,N,N,N,N,N,N,N,N,,,,,종로구,서울특별시
FC004018,라온씨어터,1.0,민간(대학로),,0.0,,,서울특별시 종로구 대학로10길 12 (동숭동) 3층,37.5816149,127.0028075,N,N,N,N,N,N,N,N,N,N,,,,,종로구,서울특별시
FC001207,컬쳐씨어터(구. 휴먼시어터),1.0,민간(대학로),2016.0,120.0,010-9012-6001,,서울특별시 종로구 대학로8가길 80 (동숭동),37.5824518,127.0032519,Y,N,N,N,N,N,N,Y,Y,N,,,,,종로구,서울특별시
FC002471,군포시평생학습원,1.0,공공(기타),2006.0,87.0,031-390-3050,https://www.happygp.or.kr/,경기도 군포시 고산로 263 (당동),37.3463508,126.9430831,N,N,N,Y,Y,Y,Y,N,N,Y,,,,,군포시,경기도
FC002721,클럽 샤프,1.0,민간(대학로 외),2016.0,100.0,010-9941-5296,https://www.facebook.com/clubsharp2016/,서울특별시 마포구 동교로 63 (망원동),37.5536153,126.9092543,N,N,Y,N,N,N,N,N,N,N,,,,,마포구,서울특별시
FC002678,더 그란데 파티 앤 뮤직 스튜디오,1.0,민간(대학로 외),2020.0,0.0,,https://thegrande.modoo.at/,서울특별시 서초구 서초대로51길 13 (서초동),37.4951454,127.0140551,N,N,N,N,N,N,N,N,N,Y,,,,,서초구,서울특별시
FC000806,틴틴홀,1.0,민간(대학로),2003.0,244.0,02-764-8760,,서울특별시 종로구 대학로10길 24 (동숭동),37.5815685,127.00353990000008,N,N,N,N,N,N,N,N,N,N,,,,,종로구,서울특별시
FC003921,소다아트홀,1.0,민간(대학로 외),,0.0,,,"경기도 김포시 김포한강9로75번길 180 (구래동, 두원타워)",37.6449162,126.6244803,N,N,N,N,N,N,N,N,N,N,,,,,김포시,경기도
FC003992,카페 디어아크,1.0,기타(비공연장),,50.0,010-8866-2213,,서울특별시 용산구 한강대로14길 35-18 (한강로3가),37.524684,126.9664182,N,N,N,N,N,N,N,N,N,N,,,,,용산구,서울특별시
FC003915,온맘씨어터,1.0,민간(대학로 외),,100.0,,,서울특별시 마포구 어울마당로 94-8 (서교동),37.5531403,126.9222208,N,N,N,N,N,N,N,N,N,N,,,,,마포구,서울특별시
FC002737,글로리어겐 스튜디오,1.0,민간(대학로 외),2018.0,60.0,031-778-6280,https://gloriagainstudio.modoo.at/?link=d0v6gmkg,경기도 용인시 수지구 신수로 767 (동천동),37.3383158,127.1017203,Y,Y,Y,N,N,N,N,N,N,Y,,,,,용인시,경기도
FC001213,대학로 뮤지컬센터,3.0,민간(대학로),2013.0,1796.0,02-2135-1507,,서울특별시 종로구 동숭길 100,37.5820171,127.00353629999996,Y,Y,N,N,N,Y,N,N,N,Y,,,,,종로구,서울특별시
FC000383,시네코아 쉐프 전용관(구. 시네코아 비밥 전용관),1.0,민간(대학로 외),2006.0,370.0,02-766-0815,http://bibap.modoo.at/,서울특별시 종로구 삼일대로 386 (관철동),37.568878,126.98809499999992,N,N,N,N,N,Y,N,N,N,Y,,,,,종로구,서울특별시
FC003985,한양대학교 예술극장,1.0,민간(대학로 외),,200.0,,,서울특별시 성동구 왕십리로 222 (사근동),37.5545035,127.0466112,N,N,N,N,N,N,N,N,N,N,,,,,성동구,서울특별시
FC002735,행주아트홀,1.0,민간(대학로 외),,200.0,00-1599-4985,http://hjarthall.co.kr/default/,경기도 고양시 덕양구 행주산성로 38 (행주외동),37.6025863,126.8228554,N,N,N,N,N,N,N,N,N,Y,,,,,고양시,경기도
FC002677,소극장 플랫폼74,1.0,민간(대학로),2020.0,70.0,010-5150-9402,,서울특별시 종로구 동숭길 74 (동숭동),37.5815333,127.0043015,N,N,N,N,N,N,N,N,N,N,,,,,종로구,서울특별시
FC000774,대학로단막극장,1.0,민간(대학로),1996.0,66.0,02-765-1544,,서울특별시 종로구 동숭4길 16-3 (동숭동),37.5832792,127.00456329999996,N,N,N,N,N,N,N,N,N,N,,,,,종로구,서울특별시
FC004135,창작집단 발아 랩실,1.0,기타(비공연장),,0.0,,,인천광역시 중구 참외전로27번길 2 (송월동1가),37.4798981,126.6233544,N,N,N,N,N,N,N,N,N,N,,,,,중구,인천광역시
FC002341,고양체육관,1.0,공공(기타),,6216.0,031-930-1000,http://gym.gys.or.kr/,경기도 고양시 일산서구 중앙로 1601 (대화동),37.6755344,126.7427195,Y,Y,Y,N,N,Y,N,N,N,Y,,,,,고양시,경기도
FC002783,타이니앨리스,1.0,민간(대학로),,160.0,010-2333-3975,,서울특별시 종로구 대학로11길 23 (명륜4가),37.5820588,127.0004181,N,N,N,N,N,N,N,N,N,N,,,,,종로구,서울특별시
FC003977,비상교육,1.0,민간(대학로 외),,0.0,02-1544-0554,https://www.visang.com/pageLoad?page_id=kr/main,경기도 과천시 과천대로2길 54 (갈현동) 그라운드브이,37.4069356,126.9842957,N,N,N,N,N,N,N,N,N,N,,,,,과천시,경기도
FC000797,63아트홀,1.0,민간(대학로 외),2009.0,467.0,02-789-5663,,서울특별시 영등포구 63로 50 (여의도동),37.5194647,126.93983260000005,Y,Y,N,N,N,Y,Y,Y,N,Y,,,,,영등포구,서울특별시
FC001278,오씨어터,1.0,민간(대학로 외),2003.0,115.0,02-747-9139,,서울특별시 종로구 대학로11길 38-23 (명륜4가),37.5729503,126.97935789999995,N,N,N,N,N,N,N,N,N,N,,,,,종로구,서울특별시
FC002443,이웃집마녀,1.0,기타(비공연장),,10.0,010-3071-0486,https://www.thewitchlab.com/,서울특별시 마포구 동교로34길 6 (연남동),37.5609258,126.9246708,N,N,N,N,N,N,N,N,N,N,,,,,마포구,서울특별시
FC002340,성남실내체육관,1.0,공공(기타),1989.0,5102.0,031-754-3100,https://www.hi-sns.or.kr/,경기도 성남시 중원구 둔촌대로183번길 20 (성남동),37.429739,127.1391283,N,Y,Y,N,N,Y,N,N,N,Y,,,,,성남시,경기도
FC003897,클래식고택 [북촌],1.0,기타(비공연장),,0.0,,,서울특별시 종로구 북촌로6길 13-2 (가회동),37.5803239,126.9856729,N,N,N,N,N,N,N,N,N,N,,,,,종로구,서울특별시
FC003936,컬러드,1.0,기타(비공연장),,0.0,,,서울특별시 강남구 학동로3길 19 (논현동),37.512784,127.0220556,N,N,N,N,N,N,N,N,N,N,,,,,강남구,서울특별시
FC003857,아로아로홀,1.0,민간(대학로 외),,0.0,,https://aroarohall.com/,서울특별시 마포구 월드컵로 41-1 (합정동),37.5530816,126.911814,N,N,N,N,N,N,N,N,N,N,,,,,마포구,서울특별시
FC002436,현대백화점 문화홀 [목동],1.0,민간(대학로 외),,530.0,02-2163-1700,http://www.ehyundai.com/newCulture/CW/CW000002_V.do?st_cd=420,"서울특별시 양천구 목동동로 257 (목동, 현대하이페리온)",37.5268548,126.8750365,Y,Y,Y,Y,Y,Y,Y,N,Y,Y,,,,,양천구,서울특별시
FC001149,우리네 극장,1.0,민간(대학로),2012.0,100.0,02-766-0242,,서울특별시 종로구 동숭길 55 (동숭동) 5층,37.5807178,127.00416599999994,Y,N,N,N,N,N,N,N,N,N,,,,,종로구,서울특별시
FC004020,브로일링커피 강동점,1.0,기타(비공연장),,0.0,010-3211-0435,,서울특별시 강동구 성내로10길 9-6 (성내동),37.5282637,127.1249507,N,N,N,N,N,N,N,N,N,N,,,,,강동구,서울특별시
FC002438,서울시민청,2.0,공공(기타),,100.0,02-739-5813,http://www.seoulcitizenshall.kr/,서울특별시 중구 세종대로 110 (태평로1가),37.5665845,126.9782041,N,Y,N,N,Y,Y,Y,N,Y,Y,,,,,중구,서울특별시
FC002581,애프터눈레코드,1.0,기타(비공연장),,0.0,070-8865-0148,https://blog.naver.com/afternoonrecords,서울특별시 마포구 동교로38안길 21 (연남동),37.5622705,126.9253757,N,N,N,N,N,N,N,N,N,N,,,,,마포구,서울특별시
FC001121,나인진홀 (구.청년극장),3.0,민간(대학로),2010.0,208.0,070-4618-5632,,서울특별시 종로구 동숭길 47 (동숭동),37.580304,127.00424399999996,N,N,N,N,N,N,N,N,N,N,,,,,종로구,서울특별시
FC000516,열린극장,1.0,민간(대학로),1999.0,150.0,02-743-6474,,서울특별시 종로구 창경궁로 258-12 (명륜2가),37.5836706,127.0003428,N,N,N,N,N,N,N,N,N,N,,,,,종로구,서울특별시
FC001142,R&J씨어터(구. 연진아트홀),1.0,민간(대학로),2006.0,127.0,02-747-1912,,서울특별시 종로구 낙산길 14 (동숭동),37.5802937,127.00526530000002,N,N,N,N,N,N,N,N,N,N,,,,,종로구,서울특별시
FC004173,부암동 제비꽃다방,1.0,기타(비공연장),,0.0,,,서울특별시 종로구 창의문로 146 (부암동),37.592945,126.9644738,N,N,N,N,N,N,Y,N,N,N,,,,,종로구,서울특별시
FC003806,SPACE SODA2002,1.0,민간(대학로 외),,70.0,,,서울특별시 마포구 희우정로5길 29 (합정동),37.5499775,126.905081,N,N,N,N,N,N,N,N,N,N,,,,,마포구,서울특별시
FC002702,57th gallery(57갤러리),1.0,기타(비공연장),,0.0,02-733-2657,http://www.57gallery.co.kr/,서울특별시 종로구 율곡로3길 17 (송현동),37.5764228,126.9825926,N,N,N,N,N,N,N,N,N,N,,,,,종로구,서울특별시
FC002437,엘라의 거실,1.0,민간(대학로 외),,0.0,010-6324-1890,https://www.facebook.com/ganaesooshow,서울특별시 마포구 독막로19길 30 (상수동),37.5489498,126.9247327,N,N,N,N,N,N,N,N,N,N,,,,,마포구,서울특별시
FC000014,충무아트센터,5.0,공공(문예회관),2005.0,2045.0,02-2230-6601,www.caci.or.kr,서울특별시 중구 퇴계로 387 (흥인동),37.5660139,127.01481309999996,Y,Y,N,Y,N,Y,Y,Y,N,Y,,,,,중구,서울특별시
FC002701,시대여관,1.0,기타(비공연장),,0.0,,,서울특별시 종로구 종로46가길 9-4 (창신동),37.5711834,127.0113836,N,N,N,N,N,N,N,N,N,N,,,,,종로구,서울특별시
FC001442,호은아트홀 (구. 키득키득아트홀),1.0,민간(대학로),2013.0,100.0,02-3673-1589,https://www.facebook.com/2012whoau,서울특별시 종로구 동숭길 68 (동숭동),37.5813131,127.0043055,N,N,N,N,N,N,N,N,N,N,,,,,종로구,서울특별시
FC004172,단밤스튜디오,1.0,기타(비공연장),,0.0,,https://danbamstudio.imweb.me/,서울특별시 마포구 월드컵북로5가길 30 (서교동) 1층,37.5562644,126.9191535,N,N,N,N,N,N,N,N,N,N,,,,,마포구,서울특별시
FC000825,피카소소극장,1.0,민간(대학로),2008.0,140.0,02-3672-7971,https://picassotheater.modoo.at/,서울특별시 종로구 대학로11길 38-11 (명륜4가),37.582654,127.00063039999998,N,N,N,N,N,N,N,N,N,N,,,,,종로구,서울특별시
FC002673,수원사,1.0,기타(비공연장),1920.0,0.0,031-255-2692,http://www.suwonsa.or.kr/,경기도 수원시 팔달구 수원천로 300 (남수동),37.280228,127.0190382,N,N,N,N,N,N,N,N,N,N,,,,,수원시,경기도
FC002746,별빛소극장,1.0,민간(대학로 외),,110.0,02-2088-2850,https://blog.naver.com/gaecheon20,서울특별시 마포구 와우산로 117 (서교동),37.5534286,126.9264485,Y,N,N,N,N,N,N,N,N,N,,,,,마포구,서울특별시
FC004006,피사체 LAB,1.0,민간(대학로 외),,0.0,,,서울특별시 서초구 나루터로15길 30-9 (잠원동),37.5173461,127.0175763,N,N,N,N,N,N,N,N,N,N,,,,,서초구,서울특별시
FC004166,와우산로 90,1.0,기타(비공연장),,0.0,,,서울특별시 마포구 와우산로 90 (서교동),37.5522662,126.9239777,N,N,N,N,N,N,N,N,N,N,,,,,마포구,서울특별시
FC001127,소극장 다르게놀자,1.0,민간(대학로),2007.0,100.0,02-747-4222,https://kimscomfunny.modoo.at/,서울특별시 종로구 동숭길 39 (동숭동),37.5799517,127.00425100000008,N,N,N,N,N,N,N,N,N,N,,,,,종로구,서울특별시
FC000198,경향아트힐,6.0,민간(대학로 외),2003.0,1826.0,02-722-4400,,서울특별시 중구 정동길 3 (정동),37.5681269,126.96995219999997,Y,Y,Y,N,N,N,Y,N,N,Y,,,,,중구,서울특별시
FC004154,성동구 연무장길 28-16 (구.타임애프터타임),1.0,기타(비공연장),,0.0,,,서울특별시 성동구 연무장길 28-16 (성수동2가),37.5429884,127.0522357,N,N,N,N,N,N,N,N,N,N,,,,,성동구,서울특별시
FC002717,나음아트홀,1.0,민간(대학로 외),,120.0,010-9686-2710,http://www.gagogmaeul.com/,서울특별시 강남구 논현로10길 28 (개포동),37.4748601,127.0508101,N,N,N,N,N,N,N,N,N,N,,,,,강남구,서울특별시
FC002722,원더러스트에이앤씨 (Wonderlust A&C),1.0,민간(대학로),,0.0,02-744-8350,https://wonderlust.modoo.at/,서울특별시 종로구 낙산길 19 (동숭동),37.5805479,127.0055969,N,N,N,N,N,N,N,N,N,N,,,,,종로구,서울특별시
FC001131,소월아트홀 (성동문화회관),1.0,공공(문예회관),1989.0,520.0,02-2204-6400,http://www.sdfac.or.kr/main/index.html,서울특별시 성동구 왕십리로 281,37.559276,127.03599370000006,N,N,N,N,Y,Y,Y,Y,N,Y,,,,,성동구,서울특별시
FC002712,클럽블랙홀(Blackhall) [홍대],1.0,기타(비공연장),,0.0,,,서울특별시 마포구 잔다리로 19-6 (서교동),37.5504836,126.9208729,N,N,N,N,N,N,N,N,N,N,,,,,마포구,서울특별시
FC003894,문래레코드,1.0,기타(비공연장),,0.0,,,서울특별시 영등포구 도림로 481 (문래동4가),37.5164088,126.8901004,N,N,N,N,N,N,N,N,N,N,,,,,영등포구,서울특별시
FC000195,청운예술극장(구. 글로브극장),1.0,민간(대학로),2004.0,110.0,02-764-7606,https://cwat.modoo.at/?link=b2cgbuto,서울특별시 종로구 대학로 60 (연건동),37.5765152,127.00254870000003,Y,N,N,N,N,N,N,N,N,Y,,,,,종로구,서울특별시
FC000332,평택시북부문예회관,2.0,공공(문예회관),1991.0,913.0,031-8053-3570,https://www.pyeongtaek.go.kr/alrimi/contents.do?mId=0204000000,경기도 평택시 경기대로 1366 (서정동),37.0668137,127.06494380000004,N,N,N,N,N,N,N,N,N,Y,,,,,평택시,경기도
FC003954,예스24 원더로크홀,1.0,민간(대학로),2024.0,376.0,,http://www.wanderlochhall.com,서울특별시 서대문구 신촌로 129 (창천동),37.5565639,126.9403281,N,N,N,N,N,N,N,N,N,N,,,,,서대문구,서울특별시
FC001144,예술공간 오르다(구. 우석레파토리극장),1.0,민간(대학로),2002.0,102.0,02-765-7501,http://www.stheater.or.kr/business_info_12.asp,서울특별시 종로구 이화장길 86-11 (동숭동),37.5791934,127.00514410000004,N,N,N,N,N,N,N,N,N,N,,,,,종로구,서울특별시
FC004155,퍼멘츠 (FERMENTS),1.0,기타(비공연장),,0.0,,https://www.instagram.com/ferments.seoul/,서울특별시 용산구 한강대로7길 22 (한강로3가),37.5247747,126.9618481,N,N,N,N,N,N,N,N,N,N,,,,,용산구,서울특별시
FC004149,Baby Doll (베이비돌),1.0,기타(비공연장),,0.0,,,서울특별시 서대문구 연세로7안길 26 (창천동),37.5582066,126.9353806,N,N,N,N,N,N,N,N,N,N,,,,,서대문구,서울특별시
FC001260,문화공간 엘림홀,1.0,민간(대학로),2007.0,268.0,02-766-7462,,서울특별시 종로구 이화장길 94 (동숭동),37.5793745,127.0047194,N,N,N,N,N,N,N,N,N,N,,,,,종로구,서울특별시
FC002672,코스모40,1.0,기타(비공연장),,0.0,032-575-2319,http://cosmo40.com,인천광역시 서구 장고개로231번길 9 (가좌동),37.4865316,126.677912,Y,Y,N,N,N,N,N,N,N,Y,,,,,서구,인천광역시
FC001817,아트라운지멋진하늘,1.0,민간(대학로 외),2011.0,150.0,070-8229-0517,http://enakwon.com/main/,서울특별시 종로구 삼일대로 428 (낙원동),37.5728323,126.9880012,N,N,N,N,N,Y,Y,N,N,Y,,,,,종로구,서울특별시
FC003031,스튜디오 다락,1.0,민간(대학로 외),,120.0,,https://theater.arko.or.kr/Pages/Main.aspx,서울특별시 종로구 대학로8길 7(동숭동),37.5811855,127.0029999,N,N,N,Y,N,N,N,N,N,Y,,,,,종로구,서울특별시
FC001860,김희수아트센터,2.0,민간(대학로 외),2010.0,140.0,02-962-7911,http://www.soorimcf.or.kr/index.html,서울특별시 동대문구 홍릉로 118 (청량리동),37.5905713,127.0429186,N,Y,N,N,N,Y,N,N,N,Y,,,,,동대문구,서울특별시
FC002928,야기스튜디오,1.0,민간(대학로 외),,0.0,02-554-0171,https://www.yagi.co.kr/,서울특별시 강남구 헌릉로569길 37(세곡동),37.4668167,127.0976059,N,N,N,N,N,N,N,N,N,Y,,,,,강남구,서울특별시
FC002630,충동소극장,1.0,민간(대학로 외),,30.0,010-3906-8835,http://www.choongdong.com/,서울특별시 광진구 뚝섬로36길 49 (자양동),37.5322705,127.0706336,N,N,N,N,N,N,N,N,N,N,,,,,광진구,서울특별시
FC001216,서강대 메리홀,2.0,민간(대학로 외),1970.0,528.0,02-705-8743,maryhall.sogang.ac.kr/,서울특별시 마포구 백범로 35 서강대학교,37.5499528,126.9391127,N,N,N,N,N,N,N,N,N,Y,,,,,마포구,서울특별시
FC003972,클럽 잭리빈 (JACK&LIVIN),2.0,민간(대학로 외),,0.0,,https://www.instagram.com/jacklivin.seoul/,서울특별시 강남구 강남대로 588 (논현동),37.5143682,127.0205366,N,N,N,N,N,N,N,N,N,N,,,,,강남구,서울특별시
FC002707,캣츠커피 [용산],1.0,기타(비공연장),,0.0,070-5220-0669,https://www.instagram.com/cats_coffee_brewery/,서울특별시 용산구 원효로48길 17 (원효로2가),37.534316,126.961186,N,N,N,N,N,N,N,N,N,Y,,,,,용산구,서울특별시
FC002434,스페이스 나인,1.0,기타(비공연장),2015.0,0.0,02-6398-7253,http://www.facebook.com/space9mullae,서울특별시 영등포구 경인로 739 (문래동2가),37.5129055,126.8955008,N,N,N,N,N,N,N,N,N,N,,,,,영등포구,서울특별시
FC000032,강북문화예술회관,2.0,공공(문예회관),2001.0,839.0,02-944-8979,https://www.gbcf.or.kr/,서울특별시 강북구 삼각산로 85 (수유동),37.6407764,127.01315840000008,Y,N,Y,N,N,Y,Y,Y,Y,Y,,,,,강북구,서울특별시
FC000055,윤당아트홀,2.0,민간(대학로 외),2009.0,417.0,02-546-8095,http://www.ydart.co.kr/,서울특별시 강남구 언주로 844 (신사동),37.5256519,127.03371519999996,N,N,N,N,N,Y,N,Y,Y,Y,,,,,강남구,서울특별시
FC003986,효원소극장,1.0,민간(대학로 외),,0.0,,,서울특별시 강남구 선릉로 603 (논현동) 지하1층,37.5107746,127.0434538,N,N,N,N,N,N,N,N,N,N,,,,,강남구,서울특별시
FC003974,1유로 프로젝트 코끼리빌라,1.0,기타(비공연장),,0.0,,https://www.instagram.com/1_euro_projects,서울특별시 성동구 송정18길 1-1 (송정동) 3층,37.5531237,127.067999,N,N,N,N,N,N,N,N,N,N,,,,,성동구,서울특별시
FC002714,인천항 국제여객터미널,1.0,기타(비공연장),,0.0,00-1599-5985,http://www.icferry.or.kr/index.do,인천광역시 연수구 국제항만대로326번길 57 (송도동),37.4239537,126.6055186,N,N,N,N,N,N,N,N,N,N,,,,,연수구,인천광역시
FC002624,졸탄극장,1.0,민간(대학로),,179.0,070-8896-9401,,서울특별시 종로구 이화장길 58 (이화동),37.5778955,127.0046323,N,N,N,N,N,N,N,N,N,N,,,,,종로구,서울특별시
FC000013,인천문화예술회관,5.0,공공(문예회관),1994.0,2258.0,032-427-8401,http://art.incheon.go.kr/,인천광역시 남동구 예술로 149 (구월동),37.4477666,126.70008329999996,N,N,N,Y,Y,Y,Y,Y,Y,Y,,,,,남동구,인천광역시
FC003900,알에스엠타워(RSM타워),1.0,기타(비공연장),,0.0,,,서울특별시 금천구 가산디지털2로 30 (가산동) 1층,37.4712746,126.8836766,N,N,N,N,N,N,N,N,N,N,,,,,금천구,서울특별시
FC003895,오프더레코드(OFF THE RECORD),1.0,민간(대학로 외),,0.0,,https://www.instagram.com/offtherecorditaewon/,서울특별시 용산구 보광로 127 (이태원동),37.5340838,126.9937193,N,N,N,N,N,N,N,N,N,N,,,,,용산구,서울특별시
FC001128,소극장 시월 (폐관),1.0,민간(대학로),2010.0,120.0,02-743-2274,,서울특별시 종로구 동숭동 1-47 연경빌딩,37.5828996,127.00240359999998,N,N,N,N,N,N,N,N,N,N,,,,,종로구,서울특별시
FC004146,서보미술문화공간 [서울],1.0,기타(비공연장),,0.0,,,서울특별시 마포구 월드컵북로12안길 3 (성산동),37.5620777,126.9152742,N,N,N,N,N,N,N,N,N,N,,,,,마포구,서울특별시
FC002686,홀로키즈파크 롤리팝아트홀,1.0,민간(대학로 외),2020.0,0.0,02-785-5737,https://blog.naver.com/magic303,서울특별시 서초구 본마을4길 3 (신원동),37.4536314,127.0554771,N,N,N,N,N,N,N,N,N,N,,,,,서초구,서울특별시
FC002709,농업생태원[평택],1.0,민간(대학로 외),,0.0,031-8024-4566,https://agri.pyeongtaek.go.kr/www/app/fuyr/faep/05/01,경기도 평택시 오성면 청오로 33-34,37.0146051,126.9811593,N,N,N,N,N,N,N,N,N,Y,,,,,평택시,경기도
FC000382,티오엠씨어터(구. 문화공간필링),3.0,민간(대학로),2014.0,555.0,00-1544-8303,http://www.towntom.com/,서울특별시 종로구 대학로8가길 85 (동숭동),37.5822467,127.00371659999996,N,N,N,N,N,N,N,N,N,Y,,,,,종로구,서울특별시
FC002639,뮤직앤아트스튜디오,1.0,민간(대학로 외),,20.0,,https://mnas.modoo.at/,"서울특별시 동작구 사당로 300 (사당동, 이수자이)",37.4843791,126.9802816,N,Y,Y,N,N,N,N,N,N,Y,,,,,동작구,서울특별시
FC003913,이들스,1.0,민간(대학로 외),2023.0,150.0,02-763-0921,https://www.instagram.com/edls_official,서울특별시 종로구 삼일대로 428 (낙원동),37.572217,126.9876446,Y,N,N,N,N,N,N,N,N,N,,,,,종로구,서울특별시
FC001318,분당소극장,1.0,민간(대학로 외),2013.0,153.0,070-4112-6478,http://cafe.naver.com/153bdc,"경기도 성남시 분당구 안골로 12-6 (서현동, 동양프라자)",37.3842402,127.13397839999992,Y,Y,N,N,N,N,N,N,N,N,,,,,성남시,경기도
FC002720,삼뉴극장 (3NEW THEATRE),1.0,민간(대학로 외),2019.0,60.0,031-966-3646,http://3newtheatre.com/default/,경기도 고양시 일산서구 송포로 297 (가좌동),37.69087,126.7250277,N,N,N,N,N,N,N,N,N,Y,,,,,고양시,경기도
FC000930,남산예술센터 (폐관),1.0,공공(기타),2009.0,356.0,02-758-2150,http://www.nsartscenter.or.kr/,서울특별시 중구 소파로 138 (예장동),37.5589457,126.98843699999998,N,N,N,N,N,Y,Y,Y,Y,N,,,,,중구,서울특별시
FC004024,아트스페이스 다스름,1.0,민간(대학로 외),,80.0,,,경기도 여주시 소양로 33 (하동),37.295693,127.629877,N,N,N,N,N,N,N,N,N,N,,,,,여주시,경기도
FC001310,인천아트플랫폼,1.0,공공(기타),2009.0,30.0,032-760-1000,http://www.inartplatform.kr,인천광역시 중구 제물량로218번길 3 - 0 인천아트플랫폼,37.4729295,126.6200473,N,Y,N,N,N,Y,Y,Y,Y,N,,,,,중구,인천광역시
FC004140,유주얼하우스,1.0,기타(비공연장),,25.0,02-6080-1002,,서울특별시 마포구 양화로7길 48 (서교동),37.5527408,126.9141585,N,N,N,N,N,N,N,N,N,N,,,,,마포구,서울특별시
FC003959,ASSA 아트홀,1.0,민간(대학로 외),,0.0,,,서울특별시 강서구 마곡중앙8로3길 31 (마곡동),37.5637901,126.8367423,N,N,N,N,N,N,N,N,N,N,,,,,강서구,서울특별시
FC002738,백지장 [신도림 지하철],1.0,민간(대학로 외),,40.0,0504-0905-2729,,서울특별시 영등포구 경인로72길 4 (문래동2가),37.5105363,126.8922158,Y,N,N,N,N,N,N,N,N,N,,,,,영등포구,서울특별시
FC000228,창동문화체육센터,1.0,공공(기타),2005.0,188.0,02-901-5000,http://www.dobongsiseol.or.kr/index_sport.html,서울특별시 도봉구 노해로69길 132 (창동),37.6582713,127.05061490000004,N,N,Y,N,N,N,N,N,N,Y,,,,,도봉구,서울특별시
FC002770,성북미디어문화마루 꿈빛극장,1.0,공공(기타),2021.0,323.0,02-6953-3201,,서울특별시 성북구 길음로7길 20 (길음동),37.6037552,127.0222037,N,N,N,N,N,N,N,N,N,N,,,,,성북구,서울특별시
FC003856,Layer 41,1.0,기타(비공연장),,0.0,,,서울특별시 성동구 아차산로9길 41 (성수동2가),37.5476269,127.0594103,N,N,N,N,N,N,N,N,N,N,,,,,성동구,서울특별시
FC001196,구리아트홀,4.0,공공(문예회관),2013.0,1030.0,031-580-7900,https://www.guriart.or.kr/PageLink.do,경기도 구리시 아차산로 453,37.5954358,127.12996380000004,N,Y,N,Y,Y,Y,Y,Y,Y,Y,,,,,구리시,경기도
FC000926,KBS 수원아트홀,1.0,공공(기타),2008.0,190.0,031-216-5201,http://www.kbssuwonart.co.kr/,경기도 수원시 팔달구 인계로 123 (인계동),37.271128,127.03089,N,Y,N,N,N,Y,N,N,N,Y,,,,,수원시,경기도
FC002851,아트벙커 B39,1.0,기타(비공연장),,0.0,032-321-3901,https://blog.naver.com/b39-space,경기도 부천시 삼작로 53(삼정동),37.5218998,126.7676609,N,N,N,N,N,N,N,N,N,Y,,,,,부천시,경기도
FC004207,진아트센터,1.0,민간(대학로 외),,189.0,,https://jinartcenter.modoo.at/?link=1zwath2f,경기도 수원시 영통구 매영로39번길 5 (매탄동),37.2695677,127.0471772,N,N,N,N,N,N,N,N,N,N,,,,,수원시,경기도
FC000633,토당청소년수련관,1.0,공공(기타),2003.0,286.0,031-970-0031,http://todangyc.or.kr/,경기도 고양시 덕양구 중앙로633번길 25 (토당동),37.622854,126.82776650000004,Y,Y,Y,N,N,Y,Y,N,Y,Y,,,,,고양시,경기도
FC001130,소나무예술극장,1.0,민간(대학로 외),1997.0,200.0,02-893-6977,https://sonamookm.modoo.at/?link=b9iwnaja,경기도 광명시 하안로288번길 15 (하안동),37.4622125,126.88134300000002,N,N,N,N,N,N,N,N,N,Y,,,,,광명시,경기도
FC002326,플레이스비브,1.0,기타(비공연장),,90.0,070-8845-7382,https://www.facebook.com/placevib.music,서울특별시 성동구 아차산로7나길 14 (성수동2가),37.5479257,127.0569341,Y,Y,N,N,N,N,N,N,N,Y,,,,,성동구,서울특별시
FC004082,서울드래곤시티 스카이킹덤,2.0,민간(대학로 외),,0.0,,,서울특별시 용산구 청파로20길 95 (한강로3가),37.5321682,126.9608842,N,N,N,N,N,N,N,N,N,N,,,,,용산구,서울특별시
FC002813,스페이스브릭 (SPACE BRICK),1.0,민간(대학로 외),,60.0,,,서울특별시 마포구 잔다리로 31(서교동),37.551202,126.9196887,N,N,N,N,N,N,N,N,N,N,,,,,마포구,서울특별시
FC000158,인천중구문화회관,1.0,공공(문예회관),2012.0,638.0,032-760-6400,http://artcenter.icjg.go.kr/,인천광역시 중구 축항대로296번길 81 (신흥동3가),37.4375263,126.6272199,N,N,N,N,N,Y,N,N,N,Y,,,,,중구,인천광역시
FC004076,entry55 [성수],1.0,민간(대학로 외),,0.0,,,서울특별시 성동구 성수일로8길 60 (성수동2가),37.5448753,127.0568179,N,N,N,N,N,N,N,N,N,N,,,,,성동구,서울특별시
FC002888,마포음악창작소,1.0,민간(대학로 외),,50.0,02-3148-6071,http://www.mapoindie.or.kr/index.asp,서울특별시 마포구 마포대로 지하238(아현동),37.555069,126.9575349,N,N,N,N,N,N,N,N,N,N,,,,,마포구,서울특별시
FC002793,"오아스페이스(구, 스페이스 홍)",1.0,기타(비공연장),2020.0,100.0,010-3043-2442,,서울특별시 마포구 동교로 144 (서교동),37.5551892,126.9180899,N,N,N,N,N,N,N,N,N,N,,,,,마포구,서울특별시
FC001266,소극장 공유,1.0,민간(대학로),2009.0,80.0,010-4879-0255,https://theater0you.modoo.at/,서울특별시 종로구 창경궁로 303 (혜화동),37.5875719,127.0032006,N,N,N,N,N,N,N,N,N,N,,,,,종로구,서울특별시
FC003925,스페이스 거북이,1.0,기타(비공연장),,0.0,,,서울특별시 강동구 진황도로27길 23 (천호동),37.539467,127.1318289,N,N,N,N,N,N,N,N,N,N,,,,,강동구,서울특별시
FC002757,카페 어반리st [동탄],1.0,기타(비공연장),2019.0,0.0,031-376-0158,https://blog.naver.com/urbanri,경기도 화성시 장지로 60-12 (장지동),37.1575883,127.1137707,N,Y,N,N,Y,Y,Y,N,N,Y,,,,,화성시,경기도
FC000134,양주문화예술회관,3.0,공공(문예회관),1997.0,1851.0,031-828-9723,https://www.yjuc.or.kr/main/index.asp,경기도 양주시 광적면 부흥로618번길 303 양주문화예술회관,37.8131434,126.97215749999998,N,N,N,N,N,N,Y,Y,N,Y,,,,,양주시,경기도
FC002787,예술공간도화,1.0,민간(대학로 외),,0.0,,https://m.blog.naver.com/peachblossom2020,서울특별시 마포구 잔다리로 113 (서교동),37.5570807,126.9137973,N,N,N,N,N,N,N,N,N,N,,,,,마포구,서울특별시
FC004057,그랜드센트럴,1.0,기타(비공연장),,0.0,02-6411-6140,https://grandcentral.kr/main/main.asp,서울특별시 중구 세종대로 14 (남대문로5가),37.5578385,126.9744151,Y,Y,N,N,N,N,N,N,N,Y,,,,,중구,서울특별시
FC004069,쇼킹 케이팝 센터 (ShowKing K-POP Center),3.0,민간(대학로 외),,0.0,02-515-0915,https://showkingkpopcenter.modoo.at/,서울특별시 마포구 월드컵북로54길 25 (상암동),37.5820926,126.8889847,N,N,N,N,N,N,N,N,N,Y,,,,,마포구,서울특별시
FC002747,TINC This is Not a Church(구. 명성교회),1.0,민간(대학로),2020.0,0.0,,https://t-i-n-c.com/Info,서울특별시 성북구 동소문로10길 34-16 (삼선동4가),37.5888231,127.0108788,N,N,N,N,N,N,N,N,N,N,,,,,성북구,서울특별시
FC000127,고양아람누리,5.0,공공(문예회관),2007.0,4640.0,00-1577-7766,http://www.artgy.or.kr/aram/introduction.aspx,경기도 고양시 일산동구 중앙로 1286 (마두동) 고양아람누리,37.6614074,126.77433789999998,Y,Y,N,Y,N,Y,N,Y,N,Y,,,,,고양시,경기도
FC004053,수상한거리 2호점,1.0,민간(대학로 외),,80.0,,https://susanghanstno2.modoo.at/,서울특별시 마포구 양화로16길 26 (서교동),37.5529848,126.9209873,N,N,N,N,N,N,N,N,N,N,,,,,마포구,서울특별시
FC000384,영산아트홀,1.0,민간(대학로 외),1999.0,598.0,02-6181-5260,http://www.youngsanarthall.com/rb/,서울특별시 영등포구 여의공원로 101 (여의도동),37.5292309,126.92487210000002,Y,Y,N,N,N,Y,N,N,N,Y,,,,,영등포구,서울특별시
FC000784,금나래아트홀,1.0,공공(문예회관),2008.0,552.0,02-2627-2981,www.gcfac.or.kr,서울특별시 금천구 시흥대로73길 70 (시흥동),37.4564588,126.8959125,N,Y,Y,N,N,Y,Y,Y,N,Y,,,,,금천구,서울특별시
FC004052,JAZZ BUNKER (재즈벙커),1.0,민간(대학로 외),,0.0,,,서울특별시 서초구 언남12길 29-12 (양재동),37.4735377,127.0458702,N,N,N,N,N,N,N,N,N,N,,,,,서초구,서울특별시
FC000570,동국대학교,4.0,민간(대학로 외),2008.0,732.0,02-2260-8901,http://www.xn--3i0by5pyxij4d72bsi666f.com/,서울특별시 중구 필동로1길 30 (필동3가),37.5582585,127.00324509999996,N,N,N,N,N,N,N,N,N,Y,,,,,중구,서울특별시
FC002766,보노마루,1.0,공공(기타),,151.0,031-481-0571,https://blog.naver.com/cityansan/222155306418,경기도 안산시 상록구 본오로 182 (본오동),37.3012795,126.8673218,N,N,N,N,N,N,N,N,N,Y,,,,,안산시,경기도
FC002382,자양스테이션(파리뮤직포럼),1.0,기타(비공연장),2019.0,50.0,02-158-4840,https://blog.naver.com/parismusicforum,서울특별시 광진구 자양로11길 18 (자양동),37.5346187,127.0830326,N,N,N,N,N,N,N,N,N,N,,,,,광진구,서울특별시
FC000039,나루아트센터,3.0,공공(문예회관),2005.0,785.0,02-2049-4711,http://www.naruart.or.kr/,서울특별시 광진구 능동로 76 (자양동),37.537352899999995,127.07052479999992,N,Y,N,N,N,Y,Y,Y,Y,Y,,,,,광진구,서울특별시
FC004051,피카디리플러스,1.0,민간(대학로 외),,0.0,,서울 종로구 돈화문로5가길 1 3층 304호,서울특별시 종로구 돈화문로5가길 1 (돈의동),37.5710275,126.9912303,N,N,N,N,N,N,N,N,N,N,,,,,종로구,서울특별시
FC000023,인천어린이과학관,2.0,공공(기타),2011.0,412.0,032-550-3300,https://www.insiseol.or.kr/culture/icsmuseum/,인천광역시 계양구 방축로 21(방축동 108-1)  인천어린이과학관,37.55169662137111,126.739895619632,N,Y,Y,N,Y,Y,N,N,N,Y,,,,,계양구,인천광역시
FC004050,아이돌스토어홀,1.0,민간(대학로 외),,0.0,,,서울특별시 마포구 와우산로29다길 20 (서교동),37.5547959,126.927275,N,N,N,N,N,N,N,N,N,N,,,,,마포구,서울특별시
FC002869,가온스테이지,1.0,민간(대학로 외),,100.0,010-9474-8650,https://blog.naver.com/gaonstudio7,서울특별시 마포구 잔다리로 59(서교동),37.5531083,126.9175257,N,N,N,N,N,N,N,N,N,N,,,,,마포구,서울특별시
FC001298,루미나아트홀 (구.시온아트홀),1.0,민간(대학로),2017.0,144.0,070-8719-9106,https://www.wwww.theblessed.net/,서울특별시 종로구 대학로8가길 52 (동숭동),37.5829439,127.00262709999993,N,N,N,N,N,N,N,N,N,N,,,,,종로구,서울특별시
FC002767,클럽 템플,1.0,민간(대학로 외),,0.0,010-2673-1847,,서울특별시 마포구 와우산로 147-1 (서교동),37.5544451,126.9294953,N,N,N,N,N,N,N,N,N,N,,,,,마포구,서울특별시
FC000528,동덕여대공연예술센터,1.0,민간(대학로),2001.0,411.0,02-940-4578,https://www.dongduk.ac.kr/kor/intro/subinstitute05.do,서울특별시 종로구 동숭길 126 (동숭동),37.5836998,127.0032999,N,N,N,N,N,Y,N,Y,N,Y,,,,,종로구,서울특별시
FC004093,음악공간 벙커 [일산],1.0,기타(비공연장),,0.0,,,경기도 고양시 일산동구 성현로135번길 103 (성석동),37.7123461,126.7975044,N,Y,N,N,N,N,N,N,N,Y,,,,,고양시,경기도
FC000194,경복궁아트홀,1.0,민간(대학로 외),2012.0,155.0,02-735-0506,https://gbgarthall.modoo.at/,서울특별시 종로구 자하문로 82 (효자동),37.5833005,126.97069980000003,N,N,N,N,N,N,N,N,N,N,,,,,종로구,서울특별시
FC004079,스프링사운즈,1.0,기타(비공연장),,0.0,,https://blog.naver.com/PostList.naver?blogId=springsounds_cafe&from=postList&categoryNo=6,경기도 용인시 수지구 동천로 339 (동천동),37.3415341,127.0680589,N,N,N,N,N,N,N,N,N,N,,,,,용인시,경기도
FC000948,죽전야외음악당,1.0,공공(기타),2005.0,680.0,031-896-7613,,경기도 용인시 수지구 죽전로168번길 9 (죽전동),37.3252395,127.12614830000008,N,N,N,N,N,Y,N,N,N,Y,,,,,용인시,경기도
FC002132,라율아트홀,1.0,민간(대학로 외),,60.0,02-522-7278,https://rayularthall.modoo.at/,서울특별시 서초구 반포대로 20 (서초동) 2층,37.482461,127.0126495,N,N,N,N,N,Y,Y,N,N,Y,,,,,서초구,서울특별시
FC004095,아르코공연 연습센터@화성,1.0,민간(대학로 외),,0.0,,,경기도 화성시 노작로 134 (반송동) 1층,37.2006876,127.0751221,N,N,N,N,N,N,N,N,N,N,,,,,화성시,경기도
FC001092,아름다운극장,1.0,민간(대학로),2008.0,100.0,02-946-0502,http://cgfamily.co.kr/,서울특별시 종로구 성균관로4길 48 (명륜2가),37.5846867,126.99998619999997,Y,N,N,N,N,N,N,N,N,N,,,,,종로구,서울특별시
FC000214,남동소래아트홀,2.0,공공(문예회관),2011.0,2235.0,032-427-8401,http://www.namdongcf.or.kr,인천광역시 남동구 아암대로1437번길 32 (논현동),37.3874966,126.7246381,N,N,N,N,N,Y,N,N,N,Y,,,,,남동구,인천광역시
FC003931,홍대BENDER,1.0,민간(대학로 외),,0.0,,,서울특별시 마포구 와우산로14길 4 (상수동),37.5500619,126.923372,N,N,N,N,N,N,N,N,N,N,,,,,마포구,서울특별시
FC004065,수원문화원 (빛누리아트홀),1.0,민간(대학로 외),,499.0,,,경기도 수원시 권선구 호매실로 237 (호매실동),37.2653772,126.9569357,N,N,N,N,N,N,N,N,N,N,,,,,수원시,경기도
FC002773,대중아트홀,1.0,민간(대학로 외),,0.0,032-565-4529,,인천광역시 서구 검단로768번1길 18 (불로동),37.612644,126.6850428,N,N,N,N,N,N,N,N,N,N,,,,,서구,인천광역시
FC000808,과천시민회관,2.0,공공(문예회관),1995.0,1309.0,02-504-7300,http://www.gccs.or.kr/dev_home/facilities/status.php,경기도 과천시 통영로 5 (중앙동),37.4279091,126.98950450000008,Y,Y,N,N,N,Y,N,Y,N,Y,,,,,과천시,경기도
FC003975,마을상점생활관,1.0,기타(비공연장),,0.0,,https://blog.naver.com/insidethevillage,경기도 안산시 상록구 이동공원로 35 (이동) 1층,37.3101969,126.8485639,N,N,N,N,N,N,N,N,N,N,,,,,안산시,경기도
FC000300,학산소극장,1.0,공공(기타),2004.0,114.0,032-866-3970,http://www.haksanculture.or.kr/theatre/haksantheater.php,인천광역시 남구 인하로 126 (용현동),37.4494551,126.661876,Y,Y,Y,N,N,Y,Y,N,Y,Y,,,,,남구,인천광역시
FC000115,영산양재홀,1.0,민간(대학로 외),2005.0,195.0,02-571-7689,http://www.youngsanhall.co.kr/introduction/int_1.asp?subnum=1,서울특별시 서초구 바우뫼로37길 45 (양재동),37.4804908,127.03841050000004,N,N,N,N,N,N,N,N,N,N,,,,,서초구,서울특별시
FC004175,오버스토리,1.0,기타(비공연장),,0.0,,https://www.instagram.com/overstory.seongbuk/,서울특별시 성북구 선잠로2다길 13-13 (성북동),37.5987253,126.9996193,N,Y,N,N,N,N,N,N,N,Y,,,,,성북구,서울특별시
FC000091,양천문화회관,3.0,공공(문예회관),1998.0,1320.0,02-2646-5870,http://www.yangcheon.go.kr/art/art/main.do,서울특별시 양천구 목동서로 367 (신정동),37.5164555,126.8632321,N,N,N,N,N,Y,Y,Y,Y,Y,,,,,양천구,서울특별시
FC002760,라온아트홀,1.0,민간(대학로),,206.0,,,서울특별시 종로구 대학로10길 11 (동숭동),37.581853,127.0028053,N,Y,N,N,N,N,N,N,N,N,,,,,종로구,서울특별시
FC000028,강동아트센터,5.0,공공(문예회관),2011.0,3240.0,02-440-0500,https://www.gangdongarts.or.kr/,서울특별시 강동구 동남로 870 (상일동),37.5512621,127.15761910000003,N,Y,N,Y,N,Y,Y,Y,Y,Y,,,,,강동구,서울특별시
FC001346,경기도어린이박물관,1.0,공공(기타),2010.0,310.0,031-270-8621,http://gcm.ggcf.kr,경기도 용인시 기흥구 상갈로 6 (상갈동),37.268065,127.10880910000004,Y,Y,N,N,N,Y,Y,Y,Y,Y,,,,,용인시,경기도
FC002857,광명문화예술교육지원센터 광명극장,1.0,공공(기타),2017.0,480.0,02-2621-8890,http://gm-arte.or.kr/index.php,경기도 광명시 철망산로 2(하안동),37.4667641,126.8699008,N,N,N,N,N,N,N,N,N,Y,,,,,광명시,경기도
FC002433,용인시평생학습관 (여성회관),2.0,공공(기타),2004.0,761.0,00-1577-1122,https://lll.yongin.go.kr/,경기도 용인시 수지구 문정로7번길 15 (풍덕천동),37.3202647,127.0953462,N,N,N,N,N,Y,Y,Y,Y,Y,,,,,용인시,경기도
FC003965,상상플랫폼,2.0,민간(대학로 외),,0.0,,,인천광역시 중구 월미로 33 (북성동1가),37.4765685,126.6144292,N,N,N,N,N,N,N,N,N,N,,,,,중구,인천광역시
FC003943,용산 꿈나무 종합타운,1.0,공공(기타),,0.0,,,서울특별시 용산구 백범로 329 (원효로1가),37.5389038,126.9650122,N,N,N,N,N,N,N,N,N,N,,,,,용산구,서울특별시
FC004129,TOUCH FIVE 전용관,1.0,민간(대학로 외),,0.0,,,서울특별시 마포구 와우산로 76-1 (서교동),37.551274,126.9235668,N,N,N,N,N,N,N,N,N,N,,,,,마포구,서울특별시
FC001167,군포문화예술회관,3.0,공공(문예회관),1998.0,2573.0,031-390-3500,http://www.gunpoart.net/?pid=B,경기도 군포시 고산로 599 (산본동),37.3661695,126.92759120000004,Y,N,Y,Y,N,Y,Y,Y,Y,Y,,,,,군포시,경기도
FC002761,복합문화공간 사유,1.0,민간(대학로 외),2017.0,140.0,02-2289-9050,https://www.instagram.com/sayoo.kr/?hl=ko,서울특별시 용산구 이태원로54길 5 (한남동),37.5380519,127.0019399,N,Y,N,N,N,N,N,N,Y,N,,,,,용산구,서울특별시
FC000663,명성황후생가문예관,1.0,공공(기타),2002.0,161.0,031-881-9730,,경기도 여주시 명성로 71 (능현동),37.259360699999995,127.6561875,Y,Y,N,N,N,Y,N,Y,N,Y,,,,,여주시,경기도
FC002833,청라복합문화센터 블루노바홀,1.0,공공(문예회관),2021.0,480.0,032-580-1196,https://iscf.kr/_new/html/centerIntro/cheongna.php,인천광역시 서구 청라대로 20 (청라동),37.5240132,126.6341822,N,Y,N,N,N,Y,N,Y,N,Y,,,,,서구,인천광역시
FC001274,노을소극장,1.0,민간(대학로),2011.0,80.0,02-921-9723,https://www.facebook.com/noelcompany,서울특별시 종로구 대학로8가길 66 (동숭동),37.5829273,127.00322289999995,N,N,N,N,N,N,N,N,N,N,,,,,종로구,서울특별시
FC003813,노아스로스팅 [일산 식사],1.0,민간(대학로 외),,0.0,070-8807-6363,http://www.noahs.co.kr/,경기도 고양시 일산동구 위시티로 39 (식사동),37.6768455,126.8083602,N,Y,N,N,N,N,N,N,N,Y,,,,,고양시,경기도
FC002642,별별극장,1.0,민간(대학로 외),2020.0,70.0,02-3679-5679,https://blog.naver.com/theater_byulbyul,경기도 과천시 새술막길 10-13 (중앙동),37.4286793,126.9909587,N,N,N,N,N,N,N,N,N,N,,,,,과천시,경기도
FC000251,중랑구민회관,2.0,공공(문예회관),1994.0,648.0,02-2207-6130,http://www.jungnangimc.or.kr/content.do?sgrp=S01&siteCmsCd=CM0001&topCmsCd=CM0007&cmsCd=CM0057&pnum=1&cnum=1,서울특별시 중랑구 면목로 238 (면목동),37.5739185,127.0850931,Y,N,N,N,N,Y,N,N,N,Y,,,,,중랑구,서울특별시
FC003802,책가옥,1.0,기타(비공연장),,0.0,,,경기도 용인시 수지구 고기로173번길 10-8 (동천동56),37.3503445,127.0849517,N,N,N,N,N,N,N,N,N,N,,,,,용인시,경기도
FC001764,솔가람아트홀,1.0,공공(문예회관),2014.0,300.0,031-950-1958,https://www.pajucf.or.kr/,경기도 파주시 가람로116번길 170 (와동동),37.7301182,126.76392050000004,N,N,N,N,N,Y,Y,Y,Y,N,,,,,파주시,경기도
FC003416,루시드아트홀,1.0,민간(대학로 외),2023.0,118.0,032-710-4907,https://lucidart.modoo.at/?link=adxcz215,인천광역시 남동구 서창남로 69 (서창동),37.4253008,126.748667,N,N,N,N,N,Y,Y,N,N,Y,,,,,남동구,인천광역시
FC003964,수원대학교,1.0,민간(대학로 외),1977.0,0.0,031-220-2114,https://www.suwon.ac.kr/,경기도 화성시 봉담읍 와우안길 17,37.2101175,126.9794804,N,N,N,N,N,N,N,N,N,Y,,,,,화성시,경기도
FC002820,우리소극장 [대학로],1.0,민간(대학로),,114.0,070-4618-5632,https://blog.naver.com/marupro01,서울특별시 종로구 이화장길 86-11(동숭동),37.5792262,127.0051573,N,N,N,N,N,N,N,N,N,N,,,,,종로구,서울특별시
FC001247,올림픽공원,12.0,공공(기타),1986.0,41376.0,02-410-1114,http://www.olympicpark.co.kr/,서울특별시 송파구 올림픽로 424 올림픽공원 (방이동),37.52112,127.12836360000004,Y,Y,Y,N,N,N,N,N,N,Y,,,,,송파구,서울특별시
FC002299,숭실대학교 한경직기념관,1.0,민간(대학로 외),1997.0,1150.0,02-820-0114,http://ssu.ac.kr/,서울특별시 동작구 상도로 369 (상도동),37.4963547,126.9572225,N,N,N,N,N,Y,Y,N,N,Y,,,,,동작구,서울특별시
FC001141,연극실험실 혜화동1번지,1.0,민간(대학로),1993.0,70.0,010-8946-4164,https://www.facebook.com/hhdlab,서울특별시 종로구 창경궁로35길 7 (혜화동),37.586337,127.00133069999993,N,N,N,N,N,N,N,N,N,N,,,,,종로구,서울특별시
FC002819,설렘아트홀,1.0,민간(대학로 외),,55.0,010-3518-7843,https://arthallserlem.modoo.at/,서울특별시 광진구 능동로19길 23(화양동),37.5470491,127.0723822,N,N,N,N,N,N,N,N,N,Y,,,,,광진구,서울특별시
FC002829,라이트 하우스,1.0,민간(대학로 외),,0.0,,,서울특별시 성북구 삼선교로10다길 74(삼선동1가),37.5837374,127.0084146,N,N,N,N,N,N,N,N,N,N,,,,,성북구,서울특별시
FC000550,수원청소년문화센터,2.0,공공(기타),2000.0,617.0,031-218-0400,http://www.syf.or.kr/web/page.do?menuIdx=358,경기도 수원시 팔달구 권광로 293 (인계동),37.2741231,127.03489360000005,N,Y,Y,N,N,Y,Y,N,N,Y,,,,,수원시,경기도
FC004142,언더독 뮤지엄,1.0,기타(비공연장),,0.0,,https://www.underdogmuseum.com/,서울특별시 마포구 양화로12길 8-7 (서교동),37.5516642,126.9179592,N,Y,N,N,N,N,N,N,N,N,,,,,마포구,서울특별시
FC000558,북촌나래홀,1.0,민간(대학로 외),2010.0,200.0,02-988-2258,,서울특별시 종로구 창덕궁길 29 - 38,37.57885024657929,126.988448176969,N,N,N,N,N,N,N,N,N,N,,,,,종로구,서울특별시
FC000036,관악아트홀 (구. 관악문화관),1.0,공공(문예회관),2002.0,700.0,02-828-5700,http://www.gwanakcullib.seoul.kr/ecolas-dl/new_kwan/intro.php,서울특별시 관악구 신림로3길 35 (신림동),37.4675136464572,126.944804505456,Y,N,N,N,N,N,N,N,N,Y,,,,,관악구,서울특별시
FC002815,맥거핀 서교,1.0,민간(대학로 외),,0.0,010-8324-8454,,서울특별시 마포구 양화로7길 28(서교동),37.5519656,126.9146894,N,N,N,N,N,N,N,N,N,N,,,,,마포구,서울특별시
FC000018,안산문화예술의전당,4.0,공공(문예회관),2004.0,3429.0,031-481-4000,http://www.ansanart.com/,경기도 안산시 단원구 화랑로 312 (고잔동),37.3196723,126.82255570000008,N,Y,N,Y,N,Y,Y,N,Y,Y,,,,,안산시,경기도
FC004179,마이원타워,1.0,민간(대학로 외),,0.0,,https://www.my-one.co.kr/,서울특별시 성북구 성북로 5-9 (성북동1가),37.5885957,127.00528,N,N,N,N,N,N,N,N,N,N,,,,,성북구,서울특별시
FC002780,강북솔밭국악당,1.0,민간(대학로 외),,100.0,010-8282-7119,https://sbkukak.modoo.at/,서울특별시 강북구 삼양로 579 (우이동),37.654697,127.0127106,N,N,N,N,N,N,N,N,N,N,,,,,강북구,서울특별시
FC000040,유시어터 (폐관),1.0,민간(대학로 외),1999.0,229.0,02-3444-0651,https://www.facebook.com/youtheater1999,서울특별시 강남구 도산대로58길 16 (청담동),37.5267908,127.04329759999996,N,N,N,N,N,N,N,N,N,N,,,,,강남구,서울특별시
FC002976,지블레싱소극장,1.0,민간(대학로 외),,40.0,010-7225-1219,,서울특별시 마포구 신촌로14길 24(노고산동),37.5550779,126.9332973,N,N,N,N,N,N,N,N,N,Y,,,,,마포구,서울특별시
FC004164,디너씨어터,1.0,민간(대학로 외),,0.0,,,서울특별시 송파구 백제고분로48길 7 (방이동),37.5116556,127.1141774,N,N,N,N,N,N,N,N,N,N,,,,,송파구,서울특별시
FC004040,쌍용아파트,1.0,기타(비공연장),,0.0,,,"서울특별시 동대문구 한천로58길 47 (이문동, 쌍용아파트) 상가동 305호",37.6007508,127.0687695,N,N,N,N,Y,N,N,N,N,N,,,,,동대문구,서울특별시
FC002874,콜드슬립(koldsleep),1.0,민간(대학로 외),,0.0,010-2721-8699,,서울특별시 강북구 인수봉로 301(수유동),37.6456351,127.0104457,N,N,N,N,N,N,N,N,N,N,,,,,강북구,서울특별시
FC004162,새싹타워,1.0,민간(대학로 외),,75.0,,,서울특별시 강서구 강서로 463 (마곡동),37.5669464,126.8404463,N,N,N,N,N,N,N,N,N,N,,,,,강서구,서울특별시
FC003291,아프리카TV 프릭업 스튜디오,1.0,민간(대학로 외),,0.0,,http://freecup.afreecatv.com/,서울특별시 강남구 테헤란로 626(대치동),37.5093582,127.0664069,N,N,N,N,N,N,N,N,N,N,,,,,강남구,서울특별시
FC000883,명보아트홀,6.0,민간(대학로 외),2008.0,1802.0,02-2274-2121,https://www.mbah.co.kr/,서울특별시 중구 마른내로 47 (초동),37.564429,126.99300100000004,Y,Y,N,N,N,N,N,N,N,Y,,,,,중구,서울특별시
FC000526,연우소극장,1.0,민간(대학로),1987.0,100.0,02-744-7090,https://iyeonwoo.modoo.at/,서울특별시 종로구 창경궁로35길 21 (혜화동),37.5869515,127.00175280000008,N,N,N,N,N,N,N,N,N,N,,,,,종로구,서울특별시
FC004089,양산박 스튜디오,1.0,민간(대학로 외),,0.0,,https://sites.google.com/view/yangsanbak,서울특별시 성북구 성북로16길 11 (성북동),37.5938418,127.0001548,N,N,N,N,N,N,N,N,N,N,,,,,성북구,서울특별시
FC002752,전태일기념관,1.0,공공(기타),2019.0,62.0,02-318-0903,https://www.taeil.org/,서울특별시 종로구 청계천로 105 (관수동),37.5684665,126.9893003,N,N,N,N,N,Y,N,N,N,N,,,,,종로구,서울특별시
FC000845,인천서구문화회관,3.0,공공(문예회관),1995.0,1401.0,032-580-1150,http://www.iscf.kr,인천광역시 서구 서달로 190 (가정동),37.5156728,126.6798708,N,Y,N,N,N,Y,N,Y,N,Y,,,,,서구,인천광역시
FC002753,오페라하우스 [신도림],2.0,공공(기타),2008.0,533.0,02-867-2209,https://www.guroartsvalley.or.kr/user/overall/overallArt8.do,서울특별시 구로구 새말로 107-32 (구로동),37.5079896,126.8909267,N,N,N,N,N,N,N,N,N,N,,,,,구로구,서울특별시
FC004075,시윤아트홀,1.0,민간(대학로),,0.0,02-1661-3123,,서울특별시 종로구 대학로 116 (동숭동),37.5815327,127.0023365,N,N,N,N,N,N,N,N,N,N,,,,,종로구,서울특별시
FC001702,상명아트센터,2.0,민간(대학로 외),2009.0,1781.0,02-2287-7186,https://www.smu.ac.kr/smarts/index.do,서울특별시 종로구 홍지문2길 20 (홍지동),37.6030022,126.95638729999996,N,N,N,N,N,Y,Y,N,Y,Y,,,,,종로구,서울특별시
FC002789,카페 어느새 봄,1.0,기타(비공연장),,0.0,,,서울특별시 서초구 강남대로2길 70 (양재동),37.4680837,127.0456112,N,N,N,N,N,N,N,N,N,N,,,,,서초구,서울특별시
FC002693,G스페이스홀 (지스페이스홀),1.0,민간(대학로 외),2020.0,73.0,02-421-9025,,서울특별시 마포구 포은로 14 (합정동),37.5494274,126.9093577,N,N,N,N,N,N,N,N,N,Y,,,,,마포구,서울특별시
FC003918,더더더,1.0,민간(대학로 외),,0.0,,,서울특별시 중구 을지로38길 9-4 (광희동1가),37.5660433,127.0039785,N,N,N,N,N,N,N,N,N,N,,,,,중구,서울특별시
FC004060,카페 모베터블루스,1.0,기타(비공연장),,0.0,,,서울특별시 종로구 동숭4길 4 (동숭동),37.5830523,127.0039951,N,N,N,N,N,N,N,N,N,N,,,,,종로구,서울특별시
FC000113,한전아트센터,1.0,공공(기타),2001.0,999.0,02-2105-8133,http://cyber.kepco.co.kr/kepco/AR/main.do?menuCd=FN10,서울특별시 서초구 효령로72길 60 (서초동),37.4856845,127.02802250000002,N,Y,N,N,N,Y,Y,Y,Y,Y,,,,,서초구,서울특별시
FC004045,마을극장 흰고무신,1.0,공공(기타),,0.0,,,서울특별시 도봉구 시루봉로15마길 13 (방학동),37.6681272,127.0315428,N,N,N,N,N,N,N,N,N,N,,,,,도봉구,서울특별시
FC000568,남산골한옥마을,7.0,공공(문예회관),2007.0,452.0,02-2261-0500,https://sgtt.kr/,서울특별시 중구 퇴계로34길 28 (필동2가),37.5588388,126.99407270000006,N,Y,N,N,N,Y,N,N,N,Y,,,,,중구,서울특별시
FC002854,초록씨어터,1.0,민간(대학로),,160.0,070-4870-1931,https://parangtheatre.modoo.at/,서울특별시 종로구 대학로 128(동숭동),37.5827051,127.0021572,N,N,N,N,N,N,N,N,N,N,,,,,종로구,서울특별시
FC003842,컴포징맨션,1.0,기타(비공연장),,0.0,,,서울특별시 은평구 가좌로 283-1 (신사동),37.5935024,126.9124339,N,N,N,N,N,N,N,N,N,N,,,,,은평구,서울특별시
FC002750,IPAC홀 (인터내셔널퍼포밍아트센터),1.0,민간(대학로 외),2017.0,50.0,010-7207-2016,https://ipac.or.kr/,서울특별시 서초구 서초중앙로 56 (서초동),37.4868995,127.0154594,N,N,N,N,N,N,N,N,N,N,,,,,서초구,서울특별시
FC001884,달밤엔씨어터,1.0,민간(대학로),2014.0,139.0,02-985-5654,https://www.instagram.com/dbncom/,서울특별시 종로구 대학로14길 18-2 (혜화동),37.5839551,127.00265549999996,N,N,N,N,N,N,N,N,N,N,,,,,종로구,서울특별시
FC002818,20세기소년,1.0,민간(대학로 외),,0.0,070-4242-6111,http://choonza.net/summer20/,서울특별시 중구 동호로24길 27-5(장충동2가),37.5604335,127.0051067,N,N,N,N,N,N,N,N,N,N,,,,,중구,서울특별시
FC000819,고양어울림누리,3.0,공공(문예회관),2004.0,2156.0,00-1577-7766,http://www.artgy.or.kr/,경기도 고양시 덕양구 어울림로 33 (성사동),37.6498532,126.83498459999998,Y,Y,N,Y,N,Y,Y,Y,Y,Y,,,,,고양시,경기도
FC003760,틸라 그라운드,2.0,민간(대학로 외),,0.0,,,서울특별시 마포구 토정로9길 2 (상수동),37.5453955,126.9244557,N,N,N,N,N,N,N,N,N,N,,,,,마포구,서울특별시
FC001125,국립정동극장 세실 (구.세실극장),1.0,국립,1976.0,234.0,02-765-7500,https://www.jeongdong.or.kr/portal/main/main.do,서울특별시 중구 세종대로19길 16 (정동),37.5667701,126.97608230000004,N,N,N,N,N,N,N,N,N,N,,,,,중구,서울특별시
FC002698,광교레이크아트홀,1.0,민간(대학로 외),,106.0,031-216-7179,,"경기도 수원시 영통구 광교호수공원로 277 (원천동, 광교중흥에스클래스)",37.2839418,127.056778,N,N,N,N,N,N,N,N,N,N,,,,,수원시,경기도
FC003839,아라아트홀,1.0,민간(대학로),,0.0,,,서울특별시 종로구 대학로8가길 30 (동숭동),37.582294,127.0025606,N,N,N,N,N,N,N,N,N,N,,,,,종로구,서울특별시
FC001275,동화소극장,1.0,민간(대학로),2015.0,60.0,010-2423-5683,,서울특별시 종로구 성균관로 6-5 (명륜2가),37.5837438,126.99855639999998,N,N,N,N,N,N,N,N,N,N,,,,,종로구,서울특별시
FC004139,시작공간 일부,1.0,민간(대학로 외),,0.0,032-766-5975,https://space1bu.ifac.or.kr/,인천광역시 중구 참외전로 100 (전동),37.4771143,126.6295017,N,N,N,N,N,N,N,N,N,N,,,,,중구,인천광역시
FC002839,서울예술대학교,4.0,민간(대학로 외),,0.0,031-412-7100,,경기도 안산시 단원구 예술대학로 171(고잔동),37.3334141,126.8362748,N,N,N,N,N,N,N,N,N,Y,,,,,안산시,경기도
FC002834,프리웰향유의집,1.0,기타(비공연장),,0.0,031-981-0909,http://www.hyangyou.or.kr/,경기도 김포시 양촌읍 양곡4로 164,37.6594023,126.626613,N,N,N,N,N,N,N,N,N,N,,,,,김포시,경기도
FC003838,공간 파란여우,1.0,민간(대학로 외),,0.0,,https://www.spacecloud.kr/space/49633,서울특별시 성북구 삼선교로16길 14 (삼선동2가 110),37.587684,127.0104435,N,N,N,N,N,N,N,N,N,N,,,,,성북구,서울특별시
FC001329,창동극장,1.0,민간(대학로 외),2014.0,100.0,070-8749-3205,http://cdt.modoo.at/,서울특별시 도봉구 노해로 391 (창동),37.6527874,127.05159359999992,N,N,N,N,N,N,N,N,N,N,,,,,도봉구,서울특별시
FC001321,카페 떼아뜨레,1.0,기타(비공연장),2012.0,80.0,010-9178-6888,https://blog.naver.com/theartre,경기도 안산시 단원구 광덕대로 187 (고잔동) 장은타워 7층,37.3133371,126.8292947,N,Y,Y,N,N,Y,N,N,N,Y,,,,,안산시,경기도
FC001201,"제이원 씨어터 (구. 서완소극장, 구. 씨어터고리)",1.0,민간(대학로),2009.0,98.0,02-926-4937,,서울특별시 종로구 창경궁로34길 18-12,37.5841705,127.00042899999994,Y,N,N,N,N,N,N,N,N,N,,,,,종로구,서울특별시
FC002849,홍대우주정거장,1.0,기타(비공연장),2017.0,0.0,070-8692-8277,http://spacestation.co.kr/,서울특별시 마포구 와우산로29길 16(서교동),37.5550169,126.92902,Y,Y,N,N,N,N,Y,N,N,Y,,,,,마포구,서울특별시
FC002876,한홀 소극장,1.0,민간(대학로 외),,96.0,031-796-6556,https://hanholthearter.modoo.at/,경기도 하남시 신장로 58(천현동),37.5353971,127.2109957,N,N,N,N,N,N,N,N,N,N,,,,,하남시,경기도
FC004217,cafe heulg,1.0,기타(비공연장),,0.0,,,서울특별시 용산구 한강대로49길 14 (한강로2가),37.5331139,126.9701412,N,N,N,N,N,N,N,N,N,N,,,,,용산구,서울특별시
FC002880,언플러그드 [신촌],1.0,민간(대학로 외),,40.0,02-3145-3082,https://www.instagram.com/unplugged_sinchon/,서울특별시 서대문구 연세로 13(창천동),37.5567378,126.9365597,N,Y,N,N,N,N,N,N,N,Y,,,,,서대문구,서울특별시
FC004157,뉴컬쳐커피 [김포],1.0,기타(비공연장),,20.0,,,경기도 김포시 김포한강1로 238 (운양동),37.6527341,126.6831625,N,N,N,N,N,N,N,N,N,N,,,,,김포시,경기도
FC004211,카세트 스튜디오,1.0,민간(대학로 외),,8.0,,,서울특별시 마포구 성미산로 52 (성산동),37.5590652,126.9138586,N,N,N,N,N,N,N,N,N,N,,,,,마포구,서울특별시
FC000216,부평아트센터,2.0,공공(문예회관),2010.0,1191.0,032-500-2000,http://www.bpart.kr/,인천광역시 부평구 아트센터로 166 (십정동),37.4819229,126.7049151,Y,Y,Y,Y,Y,Y,Y,Y,Y,Y,,,,,부평구,인천광역시
FC000850,구로구민회관,1.0,공공(문예회관),1989.0,531.0,02-860-2592,https://www.guroartsvalley.or.kr/meetingHall?guroart_menu_cd=U0015,서울특별시 구로구 가마산로25길 21 (구로동),37.497057,126.88955880000005,N,N,N,N,N,Y,Y,N,N,Y,,,,,구로구,서울특별시
FC000791,라트어린이극장,1.0,민간(대학로 외),2002.0,200.0,02-560-0999,http://www.lattct.com/,서울특별시 강남구 논현로 164 (도곡동),37.4842368,127.04230589999996,N,Y,N,Y,Y,N,N,N,N,Y,,,,,강남구,서울특별시
FC003241,선릉문화공간 제이드409,1.0,민간(대학로 외),2022.0,100.0,02-557-7937,https://jade409.modoo.at/,서울특별시 강남구 테헤란로 409(삼성동),37.5053601,127.0503869,N,N,N,N,N,N,N,N,N,N,,,,,강남구,서울특별시
FC004202,아틀리에홀,1.0,민간(대학로 외),,0.0,,,서울특별시 마포구 독막로19길 46 (상수동),37.5490834,126.9237137,N,N,N,N,N,N,N,N,N,N,,,,,마포구,서울특별시
FC001095,내유외강씨어터(구. 익스트림씨어터 1관),1.0,민간(대학로),2012.0,566.0,070-8863-0220,,서울특별시 종로구 대학로 128 (동숭동),37.582665899999995,127.00214289999997,Y,N,N,N,N,N,N,N,N,N,,,,,종로구,서울특별시
FC002912,동네극장,1.0,민간(대학로 외),,96.0,02-333-0416,https://www.instagram.com/local_book_club/,서울특별시 동대문구 안암로6길 19(용두동),37.5791469,127.0259164,N,N,N,N,N,N,N,N,N,Y,,,,,동대문구,서울특별시
FC002855,베톤부르트 (BETON BRUT),1.0,기타(비공연장),,40.0,,,서울특별시 용산구 보광로60길 17(이태원동),37.5341669,126.9951715,N,N,N,N,N,N,N,N,N,N,,,,,용산구,서울특별시
FC002414,재즈다,1.0,민간(대학로 외),,0.0,010-5360-2821,,서울특별시 마포구 양화로6길 19 (서교동),37.5492533,126.9152854,Y,Y,N,N,N,N,N,N,N,N,,,,,마포구,서울특별시
FC003694,DSM 아트홀,1.0,민간(대학로 외),,0.0,02-3452-7785,,서울특별시 마포구 독막로3길 45 (서교동),37.5502994,126.9175893,N,N,N,N,N,N,N,N,N,N,,,,,마포구,서울특별시
FC004227,소년이발사,2.0,기타(비공연장),,0.0,070-4257-5858,https://www.instagram.com/afterbarbershop_____/,서울특별시 용산구 독서당로 29-1 (한남동),37.5311584,127.00738,N,N,N,N,N,N,N,N,N,N,,,,,용산구,서울특별시
FC002896,클럽온에어,1.0,기타(비공연장),,0.0,02-332-7740,https://www.instagram.com/club_onair/,서울특별시 마포구 잔다리로 44(서교동),37.5523098,126.9189361,Y,Y,N,N,N,N,N,N,N,Y,,,,,마포구,서울특별시
FC002913,숏서킷,1.0,민간(대학로 외),,0.0,010-9600-2607,,서울특별시 용산구 원효로 187(원효로2가),37.536437,126.9631459,N,N,N,N,N,N,N,N,N,N,,,,,용산구,서울특별시
FC000059,영등포아트홀,1.0,공공(문예회관),2009.0,526.0,02-2670-4024,www.ydpcf.or.kr,서울특별시 영등포구 국회대로 596 (당산동3가),37.526038,126.90008899999998,N,N,N,N,N,Y,Y,Y,Y,Y,,,,,영등포구,서울특별시
FC001964,목동 아이스링크,1.0,공공(기타),1989.0,5000.0,02-2649-8455,http://www.mdicerink.co.kr/mdicerink/index.html,서울특별시 양천구 안양천 939 (목1동),37.5292629,126.8802993,N,N,Y,N,N,Y,Y,N,N,Y,,,,,양천구,서울특별시
FC000004,,,,,,,,,,,,,,,,,,,,,,99.0,시스템 오류가 발생했습니다.,2025-09-10 12:41:48,,
FC004218,더 스페이스 디벙크,1.0,기타(비공연장),,150.0,,,서울특별시 마포구 성지1길 30 (합정동),37.54791,126.9151208,N,N,N,N,N,N,N,N,N,N,,,,,마포구,서울특별시
FC001535,엠스테이지 (구.인사아트홀),2.0,민간(대학로 외),2017.0,286.0,02-2232-7952,https://www.samulnori.xyz/,서울특별시 종로구 인사동길 34-1 (관훈동),37.5737858,126.98560870000006,N,Y,N,N,N,N,N,N,N,N,,,,,종로구,서울특별시
FC002801,4560designhaus (디자인하우스),1.0,기타(비공연장),,0.0,010-7412-4560,http://4560dh.com/,서울특별시 서초구 매헌로 16 (양재동),37.4624673,127.0369479,N,N,N,N,N,N,N,N,N,Y,,,,,서초구,서울특별시
FC002911,카페린덴,1.0,기타(비공연장),,0.0,02-332-8235,,서울특별시 마포구 월드컵로23길 82-3(망원동),37.5543486,126.9060648,N,N,N,N,N,N,N,N,N,N,,,,,마포구,서울특별시
FC004063,경민대학교,1.0,기타(비공연장),,0.0,031-828-7700,,경기도 의정부시 서부로 545 (가능동),37.7461243,127.0251315,N,Y,Y,N,N,N,N,N,N,Y,,,,,의정부시,경기도
FC004152,소호라운지 [서울],1.0,기타(비공연장),,0.0,,https://www.instagram.com/soholoungeseoul,서울특별시 강남구 선릉로155길 29 (신사동),37.5256768,127.0371467,N,N,N,N,N,N,N,N,N,N,,,,,강남구,서울특별시
FC000744,학전 (폐관),3.0,민간(대학로),1991.0,374.0,02-763-8233,http://hakchon.co.kr/,서울특별시 종로구 대학로12길 46 (동숭동),37.58202130000001,127.00370139999995,N,N,N,N,N,N,N,N,N,N,,,,,종로구,서울특별시
FC004100,쿤스트카비넷,1.0,민간(대학로),,0.0,070-8058-9839,,서울특별시 종로구 창경궁로35길 21 (혜화동),37.586986,127.0017643,N,N,N,N,N,N,N,N,N,N,,,,,종로구,서울특별시
FC002907,아만티호텔,1.0,기타(비공연장),2016.0,0.0,02-334-3111,https://www.hotelamanti.com/,서울특별시 마포구 월드컵북로 31(서교동),37.557136,126.9187042,Y,Y,N,N,N,Y,N,N,N,Y,,,,,마포구,서울특별시
FC003868,대학로 무하아트센터,1.0,민간(대학로),,180.0,,,서울특별시 종로구 이화장길 72 (동숭동),37.5784995,127.0046477,N,N,N,N,N,N,N,N,N,N,,,,,종로구,서울특별시
FC002906,다리 소극장,1.0,민간(대학로 외),,200.0,02-338-7831,,서울특별시 마포구 월드컵북로2길 49(동교동),37.5572115,126.923029,N,N,N,N,N,N,N,N,N,N,,,,,마포구,서울특별시
FC001199,브릭스씨어터 (구. 콘텐츠 그라운드 구. 브로드웨이아트홀 [3관]),1.0,민간(대학로),2007.0,202.0,010-7270-8281,,서울특별시 종로구 대학로8길 25 (동숭동),37.5809157,127.0037003,Y,Y,N,N,N,N,N,N,N,N,,,,,종로구,서울특별시
FC002867,공간 와디즈,1.0,민간(대학로 외),,0.0,,https://spacewadiz.com/,서울특별시 성동구 연무장1길 7-1(성수동2가),37.5449343,127.0505256,N,Y,N,N,N,N,N,Y,N,N,,,,,성동구,서울특별시
FC001417,여의도 이랜드크루즈 제1터미널,1.0,민간(대학로 외),1986.0,20.0,02-3271-6900,http://www.elandcruise.com/,서울특별시 영등포구 여의동로 290 (여의도동),37.5287832,126.93572389999996,Y,Y,Y,N,N,N,N,N,N,N,,,,,영등포구,서울특별시
FC001351,성균관대학교 새천년홀,1.0,민간(대학로 외),1999.0,754.0,02-760-1068,http://hall.skku.edu,서울특별시 종로구 성균관로 25 - 2,37.5871833,126.99308329999997,N,N,N,N,N,Y,Y,Y,Y,Y,,,,,종로구,서울특별시
FC003939,선농단역사문화관,2.0,공공(기타),2015.0,0.0,02-3295-5560,https://www.ddm.go.kr/sun/index.do,서울특별시 동대문구 무학로44길 38 (제기동),37.5811838,127.0318885,N,N,N,N,N,Y,N,N,N,Y,,,,,동대문구,서울특별시
FC003863,한국외국어대학교 [서울],1.0,민간(대학로 외),1954.0,0.0,02-2173-2114,https://www.hufs.ac.kr/,서울특별시 동대문구 이문로 107 (이문동),37.5982967,127.0579424,N,Y,Y,N,N,N,N,N,N,Y,,,,,동대문구,서울특별시
FC002865,아일랜드이너프 이태원점,1.0,기타(비공연장),,32.0,010-6496-0988,https://islandenough.modoo.at/,서울특별시 용산구 녹사평대로40나길 22(이태원동),37.5353842,126.9885297,N,N,N,N,N,N,N,N,N,N,,,,,용산구,서울특별시
FC000031,블루스퀘어,4.0,민간(대학로 외),2011.0,3389.0,00-1544-1591,http://www.bluesquare.kr/,서울특별시 용산구 이태원로 294 (한남동),37.5408717,127.00244010000006,Y,Y,N,N,N,N,Y,Y,Y,Y,,,,,용산구,서울특별시
FC001309,고양시여성회관,1.0,공공(기타),2000.0,330.0,031-909-9000,https://wcenter.goyang.go.kr/new5/index.asp,경기도 고양시 덕양구 용현로 48 (행신동),37.6172529,126.83619799999995,N,Y,N,N,Y,Y,Y,N,N,Y,,,,,고양시,경기도
FC002683,앙상블리안,1.0,민간(대학로 외),,40.0,,http://www.ensemblian.com/,서울특별시 강남구 도곡로3길 13 (역삼동),37.491057,127.0326541,N,N,N,N,N,N,N,N,N,Y,,,,,강남구,서울특별시
FC002864,아일랜드이너프 연남점,1.0,기타(비공연장),,30.0,010-9926-3067,https://islandenough.modoo.at/,서울특별시 마포구 연남로 97(연남동),37.5669053,126.9174237,N,N,N,N,N,N,N,N,N,N,,,,,마포구,서울특별시
FC000788,마포아트센터,3.0,공공(문예회관),2002.0,1475.0,02-3274-8500,http://www.mapoartcenter.or.kr/,서울특별시 마포구 대흥로20길 28 (대흥동),37.549905454297104,126.945526907783,N,N,N,N,N,Y,N,Y,N,Y,,,,,마포구,서울특별시
FC004092,사운드마인드,1.0,민간(대학로 외),,60.0,02-884-2555,https://soundmindseoul.modoo.at/,서울특별시 관악구 낙성대로 14 (봉천동) 지하1층,37.4772823,126.9587389,N,N,N,N,N,N,N,N,N,N,,,,,관악구,서울특별시
FC002863,아일랜드이너프 양재점,1.0,기타(비공연장),,40.0,010-6496-0988,https://islandenough.modoo.at/,서울특별시 서초구 강남대로37길 40(서초동),37.4849423,127.0312881,N,N,N,N,N,N,N,N,N,Y,,,,,서초구,서울특별시
FC004003,언플러그드 서교,1.0,민간(대학로 외),,50.0,070-7517-3004,,서울특별시 마포구 와우산로29길 15 (서교동),37.5547913,126.9288673,N,N,N,N,N,N,N,N,N,N,,,,,마포구,서울특별시
FC002862,아일랜드이너프 선릉점,1.0,기타(비공연장),,40.0,010-6496-0988,https://islandenough.modoo.at/,서울특별시 강남구 선릉로76길 25(대치동),37.5020055,127.0525546,N,N,N,N,N,N,N,N,N,Y,,,,,강남구,서울특별시
FC004055,스윙홀,1.0,민간(대학로 외),,0.0,,,서울특별시 마포구 동교로 162-5 (서교동),37.5556334,126.9202967,N,N,N,N,N,N,N,N,N,N,,,,,마포구,서울특별시
FC003388,NC백화점,1.0,민간(대학로 외),,0.0,,,경기도 안산시 단원구 광덕대로 194(고잔동),37.3132936,126.8309972,N,N,N,N,N,N,N,N,N,N,,,,,안산시,경기도
FC000205,예스24 라이브홀 (구. 악스코리아),1.0,민간(대학로 외),2006.0,1051.0,02-457-5114,http://www.yes24livehall.com/,서울특별시 광진구 구천면로 20 (광장동),37.5456881,127.1079671,N,Y,N,N,N,N,N,N,N,N,,,,,광진구,서울특별시
FC000155,잡월드 나래울극장,2.0,공공(기타),2012.0,504.0,00-1644-1333,http://koreajobworld.or.kr/Index.do,경기도 성남시 분당구 분당수서로 501(정자동 4-6),37.3784839888856,127.105671818315,N,Y,Y,Y,Y,Y,Y,N,Y,Y,,,,,성남시,경기도
FC002860,아일랜드이너프 마곡점,1.0,기타(비공연장),,50.0,010-9926-3067,https://islandenough.modoo.at/,서울특별시 강서구 강서로 486(가양동),37.5686944,126.8416094,N,N,N,N,N,N,N,N,N,Y,,,,,강서구,서울특별시
FC003917,홍대 카페 (구.홍대카페),2.0,민간(대학로 외),,650.0,010-8877-5497,https://www.hongdaecafe.co.kr/main,서울특별시 마포구 어울마당로 68 (서교동),37.5510973,126.9214939,N,Y,N,N,N,N,N,N,N,N,,,,,마포구,서울특별시
FC003893,BRST STUDIO,1.0,민간(대학로 외),,0.0,,,서울특별시 마포구 와우산로18길 30 (서교동),37.5514862,126.9240873,N,N,N,N,N,N,N,N,N,N,,,,,마포구,서울특별시
FC000823,용인시문화예술회관,1.0,공공(문예회관),1989.0,626.0,031-260-3300,http://yicf.or.kr/main/,경기도 용인시 처인구 중부대로1392번길 15 (김량장동),37.2317133,127.19885390000002,N,Y,N,N,N,Y,Y,N,N,Y,,,,,용인시,경기도
FC001254,시네코아 사춤 전용관 (폐관),1.0,민간(대학로 외),2015.0,311.0,02-3676-7616,http://www.lovedance.co.kr/,서울특별시 종로구 삼일대로 386 (관철동) 시네코아,37.5689133,126.98806330000002,N,Y,N,N,N,Y,Y,Y,Y,Y,,,,,종로구,서울특별시
FC002759,카페 아스타나,1.0,기타(비공연장),2020.0,0.0,031-233-0453,https://www.instagram.com/cafeastana__/,경기도 화성시 효행로 1203-8 (기산동),37.2177678,127.0544027,N,Y,N,Y,Y,Y,Y,Y,Y,Y,,,,,화성시,경기도
FC003685,크레스트72(CREST72),2.0,기타(비공연장),,530.0,,https://crest72.co.kr/,서울특별시 중구 장충단로 72 (장충동2가),37.5514172,127.0025216,N,N,N,N,N,N,N,N,N,N,,,,,중구,서울특별시
FC000184,암사어린이극장,1.0,민간(대학로 외),2005.0,250.0,02-481-8808,http://www.wooripp.co.kr/,서울특별시 강동구 올림픽로 930 (암사동),37.5634142,127.13334609999993,N,N,N,N,N,N,N,N,N,Y,,,,,강동구,서울특별시
FC004134,씨스퀘어,1.0,민간(대학로 외),,156.0,,http://www.culturetower.co.kr/hall/main.asp,서울특별시 강남구 영동대로 326 (대치동),37.5038048,127.066592,N,N,N,N,N,N,N,N,N,N,,,,,강남구,서울특별시
FC002859,아일랜드이너프 도산공원점,1.0,기타(비공연장),,30.0,010-6496-0988,https://islandenough.modoo.at/,서울특별시 강남구 도산대로45길 16-8(신사동),37.5234522,127.0359865,N,Y,N,N,N,N,N,N,N,Y,,,,,강남구,서울특별시
FC000170,코엑스,8.0,민간(대학로 외),2009.0,13325.0,02-6000-0114,http://www.coex.co.kr/,서울특별시 강남구 영동대로 513 (삼성동),37.5116833,127.05910799999992,Y,Y,Y,N,Y,Y,Y,Y,N,Y,,,,,강남구,서울특별시
FC002758,카페 더비안코,1.0,기타(비공연장),,0.0,031-352-0213,https://www.instagram.com/the_biancocafe/,경기도 화성시 정남면 세자로 285-22,37.1917871,126.9785962,N,Y,N,N,N,Y,N,Y,N,Y,,,,,화성시,경기도
FC004187,본 아카데미,1.0,민간(대학로 외),,225.0,02-6908-6360,https://www.bongroup.co.kr/bon-business/space-rental/,서울특별시 영등포구 선유로 165 (양평동3가),37.5285958,126.8915078,N,N,N,N,N,N,N,N,N,N,,,,,영등포구,서울특별시
FC001395,"SCC홀 (구. DS홀, 구. 서울바로크챔버홀)",1.0,민간(대학로 외),2005.0,204.0,02-3473-2500,,서울특별시 서초구 남부순환로325길 9,37.484018,127.01569059999996,Y,Y,N,N,N,N,N,N,N,Y,,,,,서초구,서울특별시
FC002486,디앤지홀 (DNG HALL),1.0,민간(대학로 외),2015.0,250.0,010-8181-8829,https://dnghall.modoo.at/,서울특별시 송파구 오금로 195 (방이동),37.5084509,127.1160973,N,N,N,N,N,N,N,N,N,N,,,,,송파구,서울특별시
FC001369,제1 서울창의예술교육센터,1.0,공공(기타),2014.0,180.0,02-3151-1600,https://www.sen.go.kr/crezone1/,서울특별시 은평구 가좌로 208 (응암동),37.5895736,126.9193057,N,Y,N,N,N,N,Y,N,N,N,,,,,은평구,서울특별시
FC002899,헤이그라운드 성수시작점,1.0,민간(대학로 외),,0.0,02-6495-0181,https://heyground.com/,서울특별시 성동구 뚝섬로1나길 5(성수동1가),37.5444719,127.0477786,N,N,N,N,N,N,N,N,N,Y,,,,,성동구,서울특별시
FC002792,뭐든지 소극장,1.0,민간(대학로 외),2021.0,50.0,02-741-3581,http://artbridge.or.kr/,서울특별시 종로구 창신길 119 (창신동),37.5766905,127.0100096,N,Y,N,N,N,N,N,N,N,N,,,,,종로구,서울특별시
FC001367,연극실험실 일상지하,1.0,민간(대학로 외),2010.0,50.0,02-766-1774,,서울특별시 성북구 성북로 106 (성북동),37.5930444,126.9971941,N,N,N,N,N,N,N,N,N,N,,,,,성북구,서울특별시
FC004178,플렉스홀 3호점,1.0,민간(대학로 외),,0.0,,,서울특별시 마포구 독막로 68 (상수동),37.5475998,126.9208586,N,N,N,N,N,N,N,N,N,N,,,,,마포구,서울특별시
FC000218,도봉구민회관,2.0,공공(문예회관),1993.0,726.0,02-901-5160,http://www.dobongsiseol.or.kr/index_hall.html,서울특별시 도봉구 도봉로 552 (창동),37.6540005,127.03860439999994,N,N,Y,N,Y,Y,N,N,N,Y,,,,,도봉구,서울특별시
FC004177,국일관콜라텍,1.0,기타(비공연장),,0.0,,,서울특별시 종로구 수표로 96 (관수동),37.569705,126.9900242,N,N,N,N,N,N,N,N,N,N,,,,,종로구,서울특별시
FC001783,동자아트홀,1.0,민간(대학로 외),2014.0,157.0,02-6388-7978,https://dongjaarthall.tistory.com/,"서울특별시 용산구 한강대로 372 (동자동, 센트레빌아스테리움서울)",37.5359824,126.97135090000006,N,N,N,N,N,N,N,N,N,Y,,,,,용산구,서울특별시
FC001331,극장 봄 (봄소극장),1.0,민간(대학로),2011.0,55.0,070-4127-8318,http://theaterbom.modoo.at,서울특별시 성북구 삼선교로 14 (삼선동1가),37.5875069,127.00735239999995,N,N,N,N,N,N,N,N,N,N,,,,,성북구,서울특별시
FC002891,락포티,1.0,민간(대학로 외),,0.0,,,서울특별시 용산구 두텁바위로40길 32(후암동),37.5476201,126.9834069,N,N,N,N,N,N,N,N,N,N,,,,,용산구,서울특별시
FC003880,아시티스,1.0,민간(대학로 외),,0.0,,http://www.asitispace.com/,서울특별시 관악구 쑥고개로 122 (봉천동),37.4787676,126.9500117,N,N,N,N,N,N,N,N,N,Y,,,,,관악구,서울특별시
FC004102,스페이스 리아 (SPACE RIA),1.0,기타(비공연장),,0.0,,https://www.instagram.com/spaceria_jazz,인천광역시 서구 봉오재3로 120 (가정동),37.527117,126.6731301,Y,N,N,N,N,Y,N,N,N,Y,,,,,서구,인천광역시
FC001293,소울소극장,1.0,민간(대학로),2009.0,50.0,02-747-0414,,서울특별시 종로구 대학로14길 6 (혜화동),37.586755,127.0003554,N,N,N,N,N,N,N,N,N,N,,,,,종로구,서울특별시
FC000138,성미산마을극장 향,1.0,민간(대학로 외),2009.0,101.0,02-322-0345,http://cafe.naver.com/sungmisantheater.cafe,서울특별시 마포구 월드컵로26길 39 (성산동),37.5594242,126.90989319999994,N,N,N,N,N,N,Y,N,N,Y,,,,,마포구,서울특별시
FC001718,플랫폼-엘 컨템포러리 아트센터,1.0,민간(대학로 외),2016.0,172.0,02-6929-4470,http://platform-l.org/,서울특별시 강남구 언주로133길 11 (논현동),37.516368,127.034304,N,Y,N,N,N,Y,N,N,N,Y,,,,,강남구,서울특별시
FC002795,소디스 펍,1.0,기타(비공연장),,0.0,02-6497-9667,,서울특별시 관악구 봉천로 544-1 (봉천동),37.4782332,126.9581764,N,N,N,N,N,N,N,N,N,N,,,,,관악구,서울특별시
FC002897,프리마베라 459,1.0,민간(대학로 외),,0.0,010-9455-5185,,서울특별시 영등포구 도림로 459(문래동4가),37.5153748,126.8921869,N,N,N,N,N,N,N,N,N,N,,,,,영등포구,서울특별시
FC000785,대학로 자유극장 (자유문화발전소),1.0,민간(대학로),2005.0,233.0,02-743-0661,,서울특별시 종로구 대학로12길 31 (동숭동),37.5827026,127.00360520000004,N,N,N,N,N,N,N,N,N,Y,,,,,종로구,서울특별시
FC000815,M극장,1.0,민간(대학로 외),2006.0,150.0,02-578-6812,http://www.mtheater.co.kr/,서울특별시 강남구 논현로4길 36 (개포동),37.4736304,127.05291920000002,N,N,N,N,N,N,N,N,N,Y,,,,,강남구,서울특별시
FC001668,서대문문화체육회관,2.0,공공(문예회관),1993.0,739.0,02-360-8686,http://www.sscmc.or.kr/culture1/lend_library/equip_info.asp,서울특별시 서대문구 백련사길 39 (홍은동),37.5808378,126.93175139999994,N,N,N,N,N,Y,Y,Y,Y,Y,,,,,서대문구,서울특별시
FC002895,코리아나호텔,1.0,기타(비공연장),1972.0,100.0,02-2171-7000,https://www.koreanahotel.com/,서울특별시 중구 세종대로 135(태평로1가),37.5678136,126.9762472,Y,N,N,N,N,N,N,N,N,Y,,,,,중구,서울특별시
FC004066,보엠스튜디오,2.0,기타(비공연장),,0.0,,,경기도 과천시 중앙로 487 (과천동),37.4549318,127.0055593,N,N,N,N,N,N,N,N,N,N,,,,,과천시,경기도
FC001938,IGC 글로벌캠퍼스,1.0,공공(기타),2012.0,389.0,032-626-0590,http://www.igc.or.kr/vr/index.html?startscene=scene_0210,인천광역시 연수구 송도문화로 119 (송도동),37.3749282,126.6684875,N,N,N,N,N,Y,Y,N,N,Y,,,,,연수구,인천광역시
FC000020,세종문화회관,8.0,공공(문예회관),1978.0,5372.0,02-399-1000,http://www.sejongpac.or.kr/,서울특별시 종로구 세종대로 175 (세종로),37.5725254,126.97564290000004,N,N,N,N,N,Y,Y,N,N,Y,,,,,종로구,서울특별시
FC004021,시흥 웨이브파크,1.0,기타(비공연장),,0.0,,,경기도 시흥시 거북섬둘레길 42 (정왕동),37.3241008,126.6806876,N,N,N,N,N,N,N,N,N,N,,,,,시흥시,경기도
FC001364,동대문구민회관,1.0,공공(기타),1989.0,548.0,02-2247-9662,http://www.dfmc.kr/course/gym/comm_location.asp,서울특별시 동대문구 장한로18길 82-9 (장안동),37.567342,127.0734324,N,N,N,N,N,Y,Y,Y,Y,Y,,,,,동대문구,서울특별시
FC004098,모모씨어터,1.0,민간(대학로),2023.0,0.0,,,서울특별시 종로구 성균관로 15-8 (명륜3가),37.5839742,126.9972423,N,N,N,N,N,N,N,N,N,N,,,,,종로구,서울특별시
FC001265,이화여고 100주년 기념관,1.0,민간(대학로 외),2004.0,427.0,02-777-4258,,서울특별시 중구 정동길 26 (정동),37.5657015,126.97122050000009,N,Y,Y,N,N,N,N,N,N,Y,,,,,중구,서울특별시
FC003853,씩씩 뮤직바,1.0,민간(대학로 외),,50.0,,,서울특별시 성동구 왕십리로 114 (성수동1가),37.5476854,127.044746,N,N,N,N,N,N,N,N,N,N,,,,,성동구,서울특별시
FC002866,네스트호텔 [인천],1.0,민간(대학로 외),,600.0,032-743-9000,,인천광역시 중구 영종해안남로 19-5(운서동),37.4245607,126.4253822,N,N,N,N,N,N,N,N,N,N,,,,,중구,인천광역시
FC002882,YP아트홀,1.0,민간(대학로 외),,60.0,031-771-6462,https://www.facebook.com/yparthall,경기도 양평군 양평읍 양평시장길 21,37.4906095,127.4912755,N,N,N,N,N,N,N,N,N,Y,,,,,양평군,경기도
FC003775,메타코미디클럽,2.0,민간(대학로 외),,10.0,010-9506-1190,,서울특별시 마포구 와우산로 76-1 (서교동),37.551274,126.9235668,N,N,N,N,N,N,N,N,N,N,,,,,마포구,서울특별시
FC003851,을지로브이,1.0,기타(비공연장),,0.0,,,서울특별시 중구 충무로 51 (을지로3가) 4층,37.565791,126.9924978,N,N,N,N,N,N,N,N,N,N,,,,,중구,서울특별시
FC002870,롯데시네마 [부천역],1.0,기타(비공연장),,40.0,00-1544-8855,https://www.lottecinema.co.kr/NLCHS/Cinema/Detail?divisionCode=1&detailDivisionCode=2&cinemaID=9054,경기도 부천시 부천로 11(심곡동),37.4855598,126.7822777,Y,Y,Y,N,N,N,N,N,Y,Y,,,,,부천시,경기도
FC001212,예그린씨어터,1.0,민간(대학로),2014.0,202.0,02-6673-0100,http://yegreen.creatorlink.net/,서울특별시 종로구 동숭길 130-5 (동숭동),37.5838441,127.00306009999996,N,N,N,N,N,Y,N,N,N,N,,,,,종로구,서울특별시
FC003045,LG아트센터 서울,2.0,민간(대학로 외),2022.0,1700.0,00-1661-0017,https://www.lgart.com/Home/Main,서울특별시 강서구 마곡중앙로 136(마곡동),37.565363,126.8293888,N,N,N,N,N,N,N,N,N,N,,,,,강서구,서울특별시
FC001107,한국방송회관 코바코홀 (구. 브로드홀),1.0,공공(기타),1998.0,290.0,070-7581-8902,https://broadcast.kobaco.co.kr/main.jsp,서울특별시 양천구 목동동로 233 (목동) 한국방송회관,37.5269334,126.87138789999995,N,N,N,N,N,N,N,N,N,Y,,,,,양천구,서울특별시
FC003303,P&F 씨어터,1.0,민간(대학로 외),,0.0,,,인천광역시 중구 차이나타운로52번길 3(선린동),37.4749371,126.6184396,N,N,N,N,N,N,N,N,N,N,,,,,중구,인천광역시
FC001799,이화여자대학교 삼성홀,1.0,민간(대학로 외),2010.0,702.0,02-6380-4430,http://samsunghall.ticketlink.co.kr/,서울특별시 서대문구 이화여대길 52 (대현동),37.5614238,126.94697270000006,Y,Y,Y,N,N,Y,Y,Y,Y,Y,,,,,서대문구,서울특별시
FC004086,서교스퀘어,1.0,민간(대학로 외),,0.0,,,"서울특별시 마포구 양화로 72 (서교동, 서교동 효성 해링턴 타워)",37.5508138,126.916494,N,N,N,N,N,N,N,N,N,N,,,,,마포구,서울특별시
FC001330,김중업박물관 어울마당,1.0,공공(기타),2014.0,40.0,031-687-0909,http://www.ayac.or.kr/museum/main/main.asp,경기도 안양시 만안구 예술공원로103번길 4 (석수동),37.4185936,126.91788580000002,N,N,N,N,N,N,N,N,N,N,,,,,안양시,경기도
FC002979,라까사호텔 [광명],1.0,기타(비공연장),,0.0,02-6711-9000,https://www.hotellacasa.kr/main/main.php,경기도 광명시 일직로12번길 22(일직동),37.4212333,126.8819771,N,N,N,N,N,N,N,N,N,N,,,,,광명시,경기도
FC003979,사각사각 플레이스,1.0,공공(기타),,0.0,,,서울특별시 송파구 한가람로 65 (잠실동),37.5176288,127.0867373,N,N,N,N,N,N,N,N,N,N,,,,,송파구,서울특별시
FC002938,KEA아트센터 에너지월드,1.0,민간(대학로 외),,0.0,031-948-9727,https://blog.naver.com/energyworld10000,경기도 파주시 탄현면 헤이리마을길 48-9,37.7879515,126.69878,N,N,N,N,N,N,N,N,N,Y,,,,,파주시,경기도
FC004078,카페 옴니버스,1.0,기타(비공연장),,0.0,,,"서울특별시 은평구 진관3로 77 (진관동, 은평뉴타운 구파발)",37.6447083,126.9208769,N,N,N,N,N,N,N,N,N,N,,,,,은평구,서울특별시
FC000353,가나의집열림홀,1.0,민간(대학로 외),2005.0,143.0,02-741-4832,https://openhall.modoo.at/,서울특별시 종로구 대학로3길 9 (연지동),37.5738297,127.0013212,N,N,N,N,N,Y,N,N,N,Y,,,,,종로구,서울특별시
FC002949,무신사 개러지 (구. 왓챠홀),1.0,민간(대학로 외),,144.0,02-3144-0409,https://www.musinsagarage.com/,서울특별시 마포구 잔다리로 32(서교동),37.5515788,126.9198284,N,N,N,N,N,N,N,N,N,N,,,,,마포구,서울특별시
FC001229,대학로 위로홀(구. 몬스터홀),1.0,민간(대학로),2014.0,123.0,070-8600-8342,http://cafe.naver.com/wirocom,서울특별시 종로구 동숭길 74 (동숭동),37.5814937,127.00428820000002,N,N,N,N,N,N,N,N,N,N,,,,,종로구,서울특별시
FC004061,스페이스 아텔 (space Artel),1.0,민간(대학로 외),,0.0,,https://www.instagram.com/artel_frontdesk,서울특별시 성북구 보문로34다길 31 (동선동3가),37.5926264,127.0208992,N,N,N,N,N,N,N,N,N,N,,,,,성북구,서울특별시
FC003830,뮤즈 서울 (MUSE SEOUL),1.0,민간(대학로 외),,0.0,,,서울특별시 강남구 압구정로46길 71-1 (신사동),37.5241054,127.0368191,N,N,N,N,N,N,N,N,N,N,,,,,강남구,서울특별시
FC003916,몬드리안 서울 이태원,1.0,민간(대학로 외),,0.0,02-2076-2000,https://ko.book.ennismore.com/hotels/mondrian/seoul,서울특별시 용산구 장문로 23 (이태원동),37.5285656,126.9931075,Y,N,N,N,N,Y,N,N,N,Y,,,,,용산구,서울특별시
FC003347,서울월드컵경기장,1.0,기타(비공연장),,66704.0,02-2128-2002,https://www.sisul.or.kr/open_content/worldcup/,서울특별시 마포구 월드컵로 240(성산동),37.5682884,126.897273,N,N,N,N,N,N,N,N,N,N,,,,,마포구,서울특별시
FC003005,살레시오교육영성센터,1.0,민간(대학로 외),,0.0,,http://www.salesioedu.org/index.php,서울특별시 영등포구 신길로 93(신길동),37.5016429,126.909256,N,N,N,N,N,N,N,N,N,N,,,,,영등포구,서울특별시
FC003882,DGT 아트센터,1.0,민간(대학로 외),,60.0,,,서울특별시 마포구 독막로 308 (염리동),37.5436458,126.9468933,N,N,N,N,N,N,N,N,N,N,,,,,마포구,서울특별시
FC001264,노원구민의전당(구. 노원구민회관),1.0,공공(기타),1989.0,679.0,02-2289-6841,https://www.nowonsc.kr/fmcs/102,서울특별시 노원구 동일로 1229 (중계동),37.6389549,127.0663326,N,N,N,N,N,N,Y,N,N,N,,,,,노원구,서울특별시
FC002196,뿐또블루(punto blu),1.0,기타(비공연장),,0.0,02-469-9254,https://puntoblu.co/,서울특별시 성동구 성수이로22길 61 (성수동2가),37.5431468,127.0638917,Y,Y,N,N,N,N,N,N,N,Y,,,,,성동구,서울특별시
FC001294,안산올림픽기념관,2.0,공공(기타),1992.0,840.0,031-481-4900,http://www.ansanuc.net/home/10103/40050/contents.do,경기도 안산시 단원구 적금로 202 (고잔동),37.32597510000001,126.82781009999997,N,N,N,N,N,Y,Y,Y,N,Y,,,,,안산시,경기도
FC002962,인천동구문화체육센터,1.0,공공(문예회관),,495.0,032-772-7700,https://www.icdonggu.go.kr/cscenter/fmcs/1,인천광역시 동구 송림로110번길 5-8(송림동),37.475773,126.6475423,N,N,N,N,N,N,N,N,N,Y,,,,,동구,인천광역시
FC000208,강화문예회관,2.0,공공(문예회관),1991.0,1509.0,032-930-7046,http://www.ghss.or.kr/,인천광역시 강화군 강화읍 고비고개로19번길 12,37.7453095,126.47495819999996,N,N,N,N,N,Y,N,Y,N,Y,,,,,강화군,인천광역시
FC000798,산울림소극장,1.0,민간(대학로 외),1985.0,72.0,02-334-5915,www.sanwoollim.kr,서울특별시 마포구 와우산로 157 (서교동),37.555046,126.9300776,N,N,N,N,N,N,N,N,N,N,,,,,마포구,서울특별시
FC000534,(재)구리시청소년수련관,1.0,공공(기타),2003.0,286.0,031-553-7101,http://www.guriyouth.or.kr/,경기도 구리시 건원대로34번길 32-10 (인창동),37.603757,127.14178449999996,N,N,N,N,N,Y,N,Y,N,Y,,,,,구리시,경기도
FC001277,퍼즐인형극장 다락극장,1.0,민간(대학로 외),2014.0,30.0,02-766-9001,https://www.facebook.com/Puppetpuzzletheatre,서울특별시 마포구 독막로6길 27 (합정동),37.5466995,126.91720329999998,N,Y,N,N,N,N,N,N,N,N,,,,,마포구,서울특별시
FC003146,노크 클럽(KNOCK CLUB),1.0,기타(비공연장),,0.0,,,인천광역시 미추홀구 숙골로95번길 25(도화동),37.4702242,126.6598935,N,Y,N,N,N,N,N,N,N,Y,,,,,미추홀구,인천광역시
FC004108,공간 불모지,1.0,기타(비공연장),,0.0,,https://www.instagram.com/bullmoji,인천광역시 연수구 샘말로8번길 11 (연수동),37.4117176,126.6784477,N,N,N,N,N,N,N,N,N,N,,,,,연수구,인천광역시
FC003903,CLUB VICTIM,1.0,민간(대학로 외),,0.0,02-322-8487,,서울특별시 마포구 와우산로 53 (상수동),37.5492543,126.9228672,N,N,N,N,N,N,N,N,N,N,,,,,마포구,서울특별시
FC003150,부천아트센터,2.0,공공(기타),2023.0,1749.0,00-1533-0202,https://www.bac.or.kr/home/ko/main,경기도 부천시 소향로 165(중동),37.5021641,126.7663981,N,N,N,N,N,N,N,N,N,N,,,,,부천시,경기도
FC000664,용인문화예술원,1.0,공공(기타),2005.0,290.0,031-323-6371,https://www.yicf.or.kr/PageLink.do,경기도 용인시 처인구 중부대로 1199 (삼가동),37.2406893,127.17915360000006,N,N,N,N,N,Y,Y,Y,Y,Y,,,,,용인시,경기도
FC004111,얼굴박물관 [경기 광주],1.0,기타(비공연장),,0.0,031-765-3522,http://www.visagej.org/,경기도 광주시 남종면 분원길 3-6,37.4940051,127.3021274,N,N,N,N,N,N,N,N,N,Y,,,,,광주시,경기도
FC000017,경기아트센터(구. 경기도문화의전당),6.0,공공(문예회관),1991.0,3032.0,031-230-3200,http://www.ggac.or.kr/,경기도 수원시 팔달구 효원로307번길 20 (인계동) 경기도문화의전당,37.2618899,127.0374319,Y,N,N,N,N,Y,Y,N,N,Y,,,,,수원시,경기도
FC004137,국립서울현충원,1.0,국립,,0.0,02-1522-1555,https://www.mpva.go.kr/snmb/index.do,서울특별시 동작구 현충로 210 (동작동),37.4998237,126.9784084,N,N,N,N,Y,Y,Y,Y,Y,Y,,,,,동작구,서울특별시
FC000642,동두천시민회관,1.0,공공(문예회관),1992.0,480.0,031-860-2063,,경기도 동두천시 어수로 4 (상패동),37.905244499999995,127.04300910000006,N,N,N,N,N,Y,N,N,N,Y,,,,,동두천시,경기도
FC003149,소극장 무극,1.0,민간(대학로),,80.0,010-8234-6602,https://theatremuguek.modoo.at/,서울특별시 종로구 대학로9길 18(명륜4가),37.5818577,127.0008602,N,N,N,N,N,N,N,N,N,N,,,,,종로구,서울특별시
FC004220,선한목자교회,1.0,기타(비공연장),,0.0,031-750-1000,https://www.gsmch.org/,경기도 성남시 수정구 성남대로1518번길 9 (복정동),37.4662711,127.1271787,N,Y,N,N,N,N,N,N,N,Y,,,,,성남시,경기도
FC001791,노원어린이극장 (구.노원어울림극장),1.0,공공(문예회관),2020.0,204.0,02-2289-3453,https://www.nowonarts.kr/html/,서울특별시 노원구 노해로 502 (상계동),37.6543814,127.06366559999992,N,Y,N,Y,Y,Y,N,N,Y,Y,,,,,노원구,서울특별시
FC002946,라이브클럽 빵,1.0,민간(대학로 외),1994.0,0.0,02-6081-1089,https://www.facebook.com/Clubbbang,서울특별시 마포구 와우산로29길 12(서교동),37.5548556,126.9292978,N,N,N,N,N,N,N,N,N,N,,,,,마포구,서울특별시
FC004083,이함캠퍼스 [양평],1.0,기타(비공연장),,0.0,,,경기도 양평군 강하면 강남로 370-10 이함미술관 야외무대,37.5021314,127.4251122,N,N,N,N,N,N,N,N,N,N,,,,,양평군,경기도
FC001923,마로니에공원,2.0,기타(비공연장),1975.0,300.0,02-2148-1815,http://tour.jongno.go.kr/tour/main/contents.do?menuNo=400191,서울특별시 종로구 대학로 104 (동숭동),37.5804832,127.002707,N,N,Y,Y,N,Y,Y,N,N,Y,,,,,종로구,서울특별시
FC003171,제나아트홀 (구. 룸씨어터),1.0,민간(대학로),,204.0,,,서울특별시 종로구 대학로10길 12(동숭동) 지하1층,37.5816149,127.0028075,N,N,N,N,N,N,N,N,N,N,,,,,종로구,서울특별시
FC003109,마그앤그래,1.0,기타(비공연장),,0.0,010-4479-0718,https://blog.naver.com/sogano,"경기도 수원시 권선구 세권로316번길 49(권선동, 현대아파트)",37.249361,127.0374412,N,N,N,N,N,N,N,N,N,N,,,,,수원시,경기도
FC002989,스튜디오 블루,1.0,민간(대학로),,180.0,02-725-9207,,서울특별시 종로구 대학로8가길 80(동숭동),37.5824773,127.003268,N,N,N,N,N,N,N,N,N,N,,,,,종로구,서울특별시
FC003923,모던클로이스터(ModernCloister),1.0,민간(대학로 외),,0.0,,https://www.instagram.com/moderncloister_,경기도 양평군 서종면 황순원로 484,37.5771691,127.3894397,N,N,N,N,N,N,N,N,N,Y,,,,,양평군,경기도
FC004216,한길 책박물관,1.0,기타(비공연장),1976.0,0.0,031-949-9786,https://hangilbm.modoo.at/,경기도 파주시 탄현면 헤이리마을길 59-6,37.7922914,126.6957318,N,N,N,N,N,N,N,N,N,N,,,,,파주시,경기도
FC002348,시흥시청 늠내홀,1.0,공공(기타),,364.0,031-310-2945,https://www.siheung.go.kr/main.do,경기도 시흥시 시청로 20 (장현동),37.3799424,126.8031815,N,N,N,N,N,Y,Y,Y,Y,Y,,,,,시흥시,경기도
FC000046,노원문화예술회관,2.0,공공(문예회관),2004.0,1182.0,02-951-3355,http://www.nowonart.kr/,서울특별시 노원구 중계로 181 (중계동),37.6501653,127.08026270000003,N,Y,N,N,Y,Y,Y,Y,Y,Y,,,,,노원구,서울특별시
FC001911,부천실내체육관,1.0,공공(기타),1997.0,5403.0,032-340-0785,,경기도 부천시 석천로 293 (중동),37.513411,126.76326189999996,N,Y,N,N,N,Y,Y,N,N,Y,,,,,부천시,경기도
FC002997,경기섬유종합지원센터,2.0,공공(기타),,929.0,,,경기도 양주시 평화로 1215(산북동),37.7991099,127.0451659,N,N,N,N,N,N,N,N,N,N,,,,,양주시,경기도
FC003886,포크라노스,1.0,기타(비공연장),,0.0,,https://poclanos.com/,서울특별시 마포구 와우산로33길 27 (서교동) 1층,37.5555529,126.9288875,N,N,N,N,N,N,N,N,N,N,,,,,마포구,서울특별시
FC001348,안성시민회관 (폐관),1.0,공공(기타),1986.0,513.0,070-8856-2320,,경기도 안성시 장기로 107 (낙원동),37.0044112,127.27442870000004,N,N,N,N,N,N,N,N,N,N,,,,,안성시,경기도
FC003000,인천 동구 배다리 마을,1.0,기타(비공연장),,0.0,,,인천광역시 동구 참외전로 245(창영동),37.468792,126.6424044,N,N,N,N,N,N,N,N,N,N,,,,,동구,인천광역시
FC004124,신도시,1.0,기타(비공연장),,0.0,070-4141-1124,홈페이지 https://www.instagram.com/seendosi,서울특별시 중구 을지로11길 31 (수표동),37.5678117,126.9907362,N,N,N,N,N,N,N,N,N,N,,,,,중구,서울특별시
FC003827,렌더,1.0,기타(비공연장),,0.0,,,서울특별시 성동구 마조로5길 4 (행당동 4-33) 지하1층,37.5601167,127.0405752,N,N,N,N,N,N,N,N,N,N,,,,,성동구,서울특별시
FC003015,누나네 포차,1.0,기타(비공연장),,0.0,,,경기도 수원시 팔달구 권광로207번길 32(인계동),37.2667439,127.0317788,N,N,N,N,N,N,N,N,N,N,,,,,수원시,경기도
FC003885,클럽 메이드 [이태원],1.0,민간(대학로 외),,0.0,,https://itaewonmaden.modoo.at/,서울특별시 용산구 이태원로 221 (한남동),37.5353648,126.9982287,N,N,N,N,N,N,N,N,N,Y,,,,,용산구,서울특별시
FC000021,안양아트센터,2.0,공공(문예회관),1989.0,2246.0,031-687-0500,http://www.ayac.or.kr/,경기도 안양시 만안구 문예로36번길 16 (안양동),37.3845562,126.9313681,N,N,N,N,N,Y,Y,Y,Y,Y,,,,,안양시,경기도
FC003018,서울문화재단 대학로극장 쿼드 (예술청),2.0,공공(기타),2022.0,422.0,02-758-2145,https://www.sfac.or.kr/site/SFAC_KOR/09/10911010000002021111611.jsp,서울특별시 종로구 동숭길 122(동숭동),37.583699,127.0037167,N,Y,N,N,N,N,Y,Y,Y,N,,,,,종로구,서울특별시
FC004119,펄스 라이브홀,1.0,민간(대학로 외),,80.0,,https://www.pulselivehall.com/,서울특별시 서초구 주흥길 12 (반포동),37.5044881,127.0206982,N,N,N,N,N,N,N,N,N,N,,,,,서초구,서울특별시
FC000649,장안구민회관 한누리아트홀,1.0,공공(기타),2006.0,499.0,031-240-3000,https://www.suwonudc.co.kr/jacc/PageLink.do,경기도 수원시 장안구 송원로 101 (조원동),37.3039008,127.01016819999997,N,Y,N,Y,N,Y,Y,Y,N,Y,,,,,수원시,경기도
FC001268,페인터즈 히어로 종로전용관(서울극장),1.0,민간(대학로 외),2010.0,488.0,02-766-7848,http://thepainters.co.kr/,서울특별시 종로구 돈화문로 13 (관수동) 서울극장,37.5696478,126.99165879999998,N,Y,Y,N,N,Y,N,N,N,Y,,,,,종로구,서울특별시
FC002940,갈산문화예술센터,2.0,공공(문예회관),2022.0,296.0,,,서울특별시 양천구 목동남로 106(신정동),37.510804,126.8701983,N,Y,N,N,N,N,N,N,N,Y,,,,,양천구,서울특별시
FC000052,KT&G 상상마당 대치아트홀,1.0,민간(대학로 외),2006.0,422.0,02-3404-4311,https://www.sangsangmadang.com/info/DC,서울특별시 강남구 영동대로 416 (대치동),37.5065437,127.0653516,N,Y,Y,N,N,Y,Y,N,Y,Y,,,,,강남구,서울특별시
FC003883,다바야누스,1.0,민간(대학로 외),,0.0,,,서울특별시 강남구 압구정로30길 45 (신사동),37.5243503,127.0294032,N,N,N,N,N,N,N,N,N,N,,,,,강남구,서울특별시
FC000336,평택시서부문예회관,2.0,공공(문예회관),1991.0,936.0,031-8024-8321,http://www.pyeongtaek.go.kr/pyeongtaek/contents.do?mId=0601060500,경기도 평택시 안중읍 서동대로 1531,36.9898031,126.91995559999998,N,N,N,N,N,Y,N,N,N,Y,,,,,평택시,경기도
FC002987,동서울대학교,1.0,민간(대학로 외),,0.0,031-720-2114,,경기도 성남시 수정구 복정로 76(복정동),37.4582854,127.1288444,N,N,N,N,N,N,N,N,N,N,,,,,성남시,경기도
FC004196,캬바레성수,1.0,민간(대학로 외),,0.0,,,서울특별시 성동구 뚝섬로 325-2 (성수동1가),37.5410616,127.0472874,N,N,N,N,N,N,N,N,N,N,,,,,성동구,서울특별시
FC002923,로우키커피 [성수],1.0,기타(비공연장),2010.0,30.0,02-2201-8493,https://www.instagram.com/lowkey_coffee/,서울특별시 성동구 뚝섬로1나길 5(성수동1가),37.5444719,127.0477786,N,Y,N,N,N,N,N,N,N,N,,,,,성동구,서울특별시
FC000564,복사골문화센터,2.0,공공(문예회관),1998.0,712.0,032-320-6300,http://www.bcf.or.kr/coro/conc/conctour/concerttourList3.act,경기도 부천시 장말로 107 (상동),37.49479,126.754049,N,Y,N,Y,N,N,N,N,N,Y,,,,,부천시,경기도
FC004228,구의교회,1.0,기타(비공연장),,200.0,02-457-7011,http://www.kueuichurch.org/,서울특별시 광진구 광나루로44길 47 (구의동),37.542258,127.0917089,N,N,N,N,N,N,N,N,N,N,,,,,광진구,서울특별시
FC001276,부개문화사랑방,1.0,공공(기타),2008.0,592.0,032-505-5995,http://www.bpcf.or.kr/,인천광역시 부평구 동수로162번길 11 (부개동),37.510697,126.7256982,N,N,N,N,N,Y,N,N,N,Y,,,,,부평구,인천광역시
FC002990,음악공간 중력장,1.0,민간(대학로 외),,0.0,010-8738-7721,https://blog.naver.com/musicspacegf,서울특별시 동작구 현충로 104(흑석동),37.5074916,126.965005,N,N,N,N,N,N,N,N,N,N,,,,,동작구,서울특별시
FC001484,L&S아트홀(빛과소리아트홀),1.0,민간(대학로 외),2007.0,280.0,02-359-7640,,서울특별시 서초구 서초중앙로24길 55 (서초동) 서초프라자 지하3층,37.4960797,127.01939659999992,N,N,N,N,N,N,N,N,N,N,,,,,서초구,서울특별시
FC003003,H-스테이지,1.0,민간(대학로 외),,100.0,,,서울특별시 마포구 와우산로 97(서교동),37.553094,126.9243535,N,N,N,N,N,N,N,N,N,N,,,,,마포구,서울특별시
FC003754,성민아트홀,1.0,민간(대학로 외),,0.0,,http://www.fgnc.org/,서울특별시 노원구 노원로 440 (상계동) 순복음노원교회,37.6559121,127.0674545,N,N,N,N,N,N,N,N,N,N,,,,,노원구,서울특별시
FC003042,엔써뮤직,1.0,민간(대학로 외),2020.0,10.0,02-336-5775,https://www.nswermusic.com/,서울특별시 마포구 독막로6길 5(합정동),37.5476935,126.9177136,N,Y,N,N,N,N,N,N,N,Y,,,,,마포구,서울특별시
FC000543,한중문화관,1.0,공공(기타),2005.0,200.0,032-760-7860,http://www.hanjung.go.kr/,인천광역시 중구 제물량로 238 (항동1가),37.473539900000006,126.6187688,N,N,N,N,N,Y,Y,Y,Y,Y,,,,,중구,인천광역시
FC004113,원불교 원남교당,2.0,기타(비공연장),,250.0,02-762-9100,https://wonwn.co.kr/,서울특별시 종로구 창경궁로22길 23 (원남동),37.5764721,126.9988134,N,N,N,N,N,N,N,N,N,N,,,,,종로구,서울특별시
FC000106,경기광주 예술의전당 (구. 경기광주문예회관),2.0,공공(기타),1993.0,1950.0,031-760-2068,,경기도 광주시 광주대로 69 (경안동),37.4129503,127.26003590000003,N,N,N,N,N,N,N,N,N,Y,,,,,광주시,경기도
FC001299,신한대학교 벧엘관,1.0,민간(대학로 외),2005.0,600.0,031-870-3114,http://www.shinhan.ac.kr/,경기도 의정부시 호암로 95 (호원동),37.7094314,127.0450303,N,Y,N,N,N,Y,N,N,N,Y,,,,,의정부시,경기도
FC003048,극장 PLOT,1.0,민간(대학로 외),2019.0,100.0,010-4334-2862,www.theatreplot.com,서울특별시 서대문구 연세로4길 27(창천동),37.5576008,126.9381984,N,N,N,N,N,N,N,N,N,N,,,,,서대문구,서울특별시
FC000667,파주시민회관,3.0,공공(문예회관),1994.0,1702.0,031-950-1854,http://pajusisul.or.kr/info/info_01_01.php,경기도 파주시 시민회관길 33 (금촌동),37.7594363,126.78032640000004,N,N,N,N,N,Y,Y,Y,Y,Y,,,,,파주시,경기도
FC004080,인유어즈청담,1.0,민간(대학로 외),,20.0,,,"서울특별시 강남구 도산대로98길 30-3 (청담동, INYOURS cheongdam)",37.5223874,127.051588,N,N,N,N,N,N,N,N,N,N,,,,,강남구,서울특별시
FC003869,러스틱재즈,1.0,민간(대학로 외),,0.0,,,서울특별시 마포구 망원로 74 (망원동),37.5572259,126.9049798,N,N,N,N,N,N,N,N,N,N,,,,,마포구,서울특별시
FC001537,스튜디오SK,1.0,민간(대학로),2013.0,150.0,02-747-5035,https://studiosk.modoo.at/,서울특별시 종로구 성균관로 15-10 (명륜3가),37.5838639,126.9971044,N,N,N,N,N,N,N,N,N,N,,,,,종로구,서울특별시
FC002894,북아현아트홀,1.0,공공(기타),2021.0,206.0,02-360-8663,https://www.sscmc.or.kr/culture3/,서울특별시 서대문구 북아현로 51(북아현동),37.5618398,126.9554383,N,N,N,N,N,Y,N,N,N,Y,,,,,서대문구,서울특별시
FC004109,공간 비틀즈,1.0,민간(대학로 외),,50.0,010-3176-1013,,서울특별시 마포구 와우산로29길 27 (서교동),37.5551048,126.9283403,N,N,N,N,N,N,N,N,N,N,,,,,마포구,서울특별시
FC002592,클럽 매드홀릭(MADHOLIC),1.0,기타(비공연장),,0.0,010-2318-0533,https://www.facebook.com/madholic.hongdae,서울특별시 마포구 잔다리로 21 (서교동),37.5506266,126.9207113,N,Y,N,N,N,N,N,N,N,N,,,,,마포구,서울특별시
