공연시설ID,공연시설명,공연장수,시설특성,개관연도,객석수,전화번호,홈페이지,주소,위도,경도,레스토랑여부,카페여부,편의점여부,놀이방여부,수유실여부,장애시설_주차장,장애시설_화장실,장애시설_경사로,장애시설_엘리베이터,주차시설여부,mt13s,returncode,errmsg,responsetime,시군구,시도
FC002611,서울대학교,4.0,공공(기타),,115.0,02-880-5114,,서울특별시 관악구 관악로 1 (신림동),37.4680381,126.9592943,N,N,N,N,N,Y,N,N,N,Y,,,,,관악구,서울특별시
FC001177,광화문아트홀,1.0,공공(문예회관),2008.0,340.0,,,서울특별시 종로구 인왕산로1길 21 (사직동),37.5742102,126.9646484,N,N,N,N,N,Y,Y,Y,N,N,,,,,종로구,서울특별시
FC003454,뭇(moot),1.0,민간(대학로 외),,0.0,010-6698-2415,,서울특별시 강남구 강남대로162길 41-15 (신사동),37.5217066,127.021036,N,N,N,N,N,N,N,N,N,N,,,,,강남구,서울특별시
FC001958,반포심산아트홀,1.0,공공(기타),2011.0,405.0,02-3477-2666,www.seochocf.or.kr,서울특별시 서초구 사평대로 55 (반포동),37.4988598,126.9905166,N,N,N,N,N,Y,Y,N,N,Y,,,,,서초구,서울특별시
FC001859,JS아트홀 (구. 고스트씨어터 구.다소니씨어터),1.0,민간(대학로),2018.0,200.0,070-7733-7198,,서울특별시 종로구 동숭길 94 (동숭동),37.5824158,127.004328,N,N,N,N,N,N,N,N,N,N,,,,,종로구,서울특별시
FC003378,스튜디오 일상,1.0,민간(대학로 외),,0.0,,,서울특별시 성북구 삼선교로10길 3(삼선동2가),37.5878433,127.0089396,N,N,N,N,N,N,N,N,N,N,,,,,성북구,서울특별시
FC002361,반쥴,1.0,기타(비공연장),,70.0,02-735-5437,http://www.banjul.co.kr/,서울특별시 종로구 삼일대로17길 23 (관철동),37.5690724,126.9861858,N,Y,N,N,N,N,N,N,N,N,,,,,종로구,서울특별시
FC003414,M50클럽,1.0,민간(대학로),,0.0,,,서울특별시 마포구 월드컵북로6길 60 (동교동),37.5592749,126.9216589,N,N,N,N,N,N,N,N,N,N,,,,,마포구,서울특별시
FC000840,계양문화회관,1.0,공공(문예회관),1997.0,795.0,032-551-6602,http://www.gysiseol.or.kr/culturebuilding/main/index.php,인천광역시 계양구 계양산로35번길 11 (계산동),37.5461360583772,126.718079789918,N,N,N,N,N,Y,N,N,N,Y,,,,,계양구,인천광역시
FC003620,스튜디오 별감,1.0,민간(대학로 외),2023.0,0.0,,https://www.byulgam.com/,서울특별시 마포구 월드컵로5길 20 (합정동),37.5519606,126.9112206,N,N,N,N,N,N,N,N,N,Y,,,,,마포구,서울특별시
FC003633,서대문독립공원,1.0,국립,1992.0,0.0,,,서울특별시 서대문구 통일로 251 (현저동),37.5746085,126.9556118,N,N,N,N,N,N,N,N,N,N,,,,,서대문구,서울특별시
FC003603,연극패 청년,1.0,민간(대학로 외),,10.0,010-2634-7976,,서울특별시 영등포구 양산로 150 (당산동1가),37.5234207,126.8996307,N,N,N,N,N,N,N,N,N,N,,,,,영등포구,서울특별시
FC001847,을지공간,1.0,민간(대학로 외),2018.0,50.0,010-2104-7293,https://www.euljispace.com/,서울특별시 중구 창경궁로5길 5 (을지로4가),37.5670744,126.9976782,N,Y,N,N,N,N,N,N,N,N,,,,,중구,서울특별시
FC003601,극단틈새소극장,1.0,민간(대학로 외),2012.0,56.0,010-3286-7993,,서울특별시 관악구 남부순환로 1695 (봉천동),37.483917,126.9388891,N,N,N,N,N,N,N,N,N,N,,,,,관악구,서울특별시
FC001814,북극곰소극장(구.아뮤스소극장),1.0,민간(대학로),2019.0,37.0,010-4293-5155,https://bookbear23.modoo.at/,서울특별시 종로구 이화장1길 24 (이화동),37.5773694,127.00575709999998,N,N,N,N,N,N,Y,N,N,N,,,,,종로구,서울특별시
FC003596,살라1,1.0,민간(대학로 외),,0.0,,,서울특별시 마포구 동교로 47 (망원동),37.5530351,126.9074272,N,N,N,N,N,N,N,N,N,N,,,,,마포구,서울특별시
FC001066,북촌창우극장,1.0,민간(대학로 외),1993.0,100.0,02-747-3809,https://bcchangwoo.modoo.at/,서울특별시 종로구 창덕궁길 29-6 (원서동),37.5788675,126.98884450000004,N,N,N,N,N,N,N,N,N,N,,,,,종로구,서울특별시
FC003524,종로인사동일대,1.0,기타(비공연장),,0.0,,,서울특별시 종로구 대학로5길 57 (연건동),37.5765586,127.00145,N,N,N,N,N,N,N,N,N,N,,,,,종로구,서울특별시
FC003626,직장인극단 함바꿈,1.0,민간(대학로 외),2000.0,10.0,010-3286-7993,,경기도 부천시 석천로2번길 83 (상동),37.4871416,126.7642874,N,N,N,N,N,N,N,N,N,N,,,,,부천시,경기도
FC003787,경로당,1.0,기타(비공연장),,0.0,,,서울특별시 은평구 통일로 935 (갈현동),37.6265092,126.9195228,N,N,N,N,N,N,N,N,N,N,,,,,은평구,서울특별시
FC001815,마루아트홀,1.0,민간(대학로),2018.0,170.0,070-4618-5753,https://www.instagram.com/my_ps_partner_maruart/,서울특별시 종로구 대학로8가길 30 (동숭동),37.582253,127.0025458,N,N,N,N,N,N,N,N,N,N,,,,,종로구,서울특별시
FC003772,디오니소스라운지,1.0,기타(비공연장),,0.0,,,서울특별시 강남구 강남대로 548 (논현동),37.5110346,127.0218871,N,N,N,N,N,N,N,N,N,N,,,,,강남구,서울특별시
FC003361,공간 아진,1.0,민간(대학로 외),,0.0,,https://www.instagram.com/space_ajin/,서울특별시 동작구 사당로30길 163(사당동),37.4774867,126.9807836,N,N,N,N,N,N,N,N,N,N,,,,,동작구,서울특별시
FC003768,이동형공연(수유동일대),1.0,기타(비공연장),,0.0,,,서울특별시 강북구 도봉로 지하198 (미아동),37.6264436,127.0261034,N,N,N,N,N,N,N,N,N,N,,,,,강북구,서울특별시
FC001836,경기상상캠퍼스 M3,3.0,공공(기타),2016.0,276.0,031-296-1980,http://sscampus.kr/,경기도 수원시 권선구 서둔로 166 (서둔동),37.2629491,126.9817372,N,Y,N,N,N,Y,N,N,N,Y,,,,,수원시,경기도
FC003462,스케치홀 (구.소극장 선물 1관),2.0,민간(대학로),,20.0,,,서울특별시 종로구 동숭길 145 (동숭동),37.5831766,127.0022799,N,N,N,N,N,N,N,N,N,N,,,,,종로구,서울특별시
FC003519,스페이스클라우드,1.0,민간(대학로 외),2013.0,15.0,,https://www.spacecloud.kr/space/42461,서울특별시 종로구 평창30길 15 (평창동),37.6111584,126.9747382,N,Y,N,N,N,N,N,N,N,Y,,,,,종로구,서울특별시
FC000303,작은극장 돌체,1.0,민간(대학로 외),2007.0,96.0,032-772-7361,http://www.clownmime.co.kr/,인천광역시 미추홀구 매소홀로 573 (문학동),37.438755,126.68573600000002,N,N,N,N,N,N,Y,N,Y,Y,,,,,미추홀구,인천광역시
FC001852,연희예술극장,1.0,민간(대학로 외),2018.0,100.0,010-3441-5877,http://yeonheeart.com/INTRO,서울특별시 서대문구 연희맛로 2-3 (연희동),37.5656012,126.92854110000007,N,Y,N,N,N,N,N,N,N,N,,,,,서대문구,서울특별시
FC001845,VERY (베리컴퍼니),2.0,민간(대학로),,266.0,02-3674-2525,,서울특별시 종로구 동숭3길 30 (동숭동),37.5822989,127.00477669999998,N,Y,N,N,N,N,Y,N,Y,N,,,,,종로구,서울특별시
FC003668,13블럭 소극장,1.0,민간(대학로 외),2023.0,60.0,010-7720-8607,https://www.instagram.com/play_block13/,경기도 고양시 일산동구 강촌로26번길 7-21 (백석동),37.6470888,126.7801102,N,N,N,N,N,N,N,N,N,Y,,,,,고양시,경기도
FC000065,한국문화의집 KOUS,1.0,공공(기타),2003.0,230.0,02-3011-1788,http://www.kous.or.kr,서울특별시 강남구 테헤란로92길 12-9 (대치동),37.5067845,127.06046089999997,N,N,N,N,N,N,N,N,N,Y,,,,,강남구,서울특별시
FC003653,갤러리 산수,1.0,민간(대학로 외),,0.0,070-8202-4787,https://www.gallerysansu.com/,경기도 고양시 일산동구 산두로213번길 28 (정발산동),37.6743259,126.779578,N,N,N,N,N,N,N,N,N,N,,,,,고양시,경기도
FC003482,극단 제이와이,1.0,민간(대학로 외),,0.0,,https://theaterjy.modoo.at/,서울특별시 서대문구 신촌로 173-2 (대현동),37.5569788,126.9453455,N,N,N,N,N,N,N,N,N,N,,,,,서대문구,서울특별시
FC002215,탈영역우정국,1.0,기타(비공연장),2015.0,80.0,02-336-8553,http://ujeongguk.com/,서울특별시 마포구 독막로20길 42 (창전동),37.5469478,126.9275954,N,N,N,N,N,N,N,Y,N,N,,,,,마포구,서울특별시
FC002055,NC소극장 [안산고잔],1.0,민간(대학로 외),,200.0,031-414-2100,https://blog.naver.com/manimani_ansan,경기도 안산시 단원구 광덕대로 194 (고잔동),37.3138933,126.8310464,Y,Y,Y,Y,Y,Y,N,N,N,Y,,,,,안산시,경기도
FC003504,기지촌여성평화박물관 일곱집매,1.0,기타(비공연장),,0.0,031-618-5535,,경기도 평택시 팽성읍 안정순환로126번길 25-4,36.9608545,127.0425407,N,N,N,N,N,N,N,N,N,N,,,,,평택시,경기도
FC002651,1M SPACE (폐관),1.0,민간(대학로 외),2019.0,55.0,,https://yellowclip.space/,서울특별시 서대문구 연세로4길 27 (창천동),37.5576008,126.9381984,N,N,N,N,N,N,N,N,N,N,,,,,서대문구,서울특별시
FC003456,경민현대미술관,1.0,기타(비공연장),,0.0,,,"경기도 의정부시 시민로 24 (의정부동, 신도 아크라티움)",37.737859,127.037805,N,N,N,N,N,N,N,N,N,N,,,,,의정부시,경기도
FC002625,보광극장,1.0,민간(대학로 외),2017.0,30.0,010-6246-2449,https://bktheater.modoo.at/,서울특별시 용산구 장문로19길 4 (보광동),37.5260989,126.9977628,N,N,N,N,N,N,N,N,N,Y,,,,,용산구,서울특별시
FC002588,씨어터 쿰,1.0,민간(대학로),,111.0,02-6085-0015,,서울특별시 종로구 창경궁로 253-7 (명륜2가),37.5844442,126.9994928,N,N,N,N,N,N,N,N,N,Y,,,,,종로구,서울특별시
FC000841,콘텐츠박스(구. 르메이에르 씨어터),1.0,민간(대학로),2006.0,196.0,02-747-2232,,서울특별시 종로구 동숭길 55 (동숭동),37.5807178,127.00416599999994,N,N,N,N,N,N,N,N,N,N,,,,,종로구,서울특별시
FC001226,극장 동국,1.0,민간(대학로),2014.0,82.0,02-747-5296,https://www.facebook.com/PalyDongGuk,서울특별시 종로구 창경궁로 259,37.5845149,127.0000258,N,N,N,N,N,N,N,N,N,N,,,,,종로구,서울특별시
FC004422,아르코 꿈밭극장,1.0,공공(기타),2024.0,169.0,02-3668-0007,https://theater.arko.or.kr/,서울특별시 종로구 대학로12길 46 (동숭동),37.582042,127.003731,N,N,N,N,N,N,N,N,N,N,,,,,종로구,서울특별시
FC003847,위크앨리,1.0,기타(비공연장),,25.0,010-7273-9577,,서울특별시 종로구 계동길 77 (계동),37.5807718,126.986622,N,N,N,N,N,N,N,N,N,N,,,,,종로구,서울특별시
FC000227,미마지아트센터,3.0,민간(대학로),2008.0,382.0,02-6404-5005,http://www.mimagi.com/,서울특별시 종로구 혜화로 17 (명륜1가),37.5870645,126.99977209999996,N,N,N,N,N,N,N,N,N,N,,,,,종로구,서울특별시
FC001100,도곡2문화센터,1.0,공공(기타),2010.0,138.0,02-2176-0743,,서울특별시 강남구 남부순환로378길 34-9 (도곡동),37.4837128,127.04643740000006,N,N,N,N,N,Y,Y,Y,Y,Y,,,,,강남구,서울특별시
FC004130,동성고등학교,1.0,민간(대학로),,0.0,02-3671-9100,,서울특별시 종로구 대학로 156 (혜화동),37.58497,127.0030976,N,N,N,N,N,N,N,N,N,N,,,,,종로구,서울특별시
FC001209,공간아울,1.0,민간(대학로),2010.0,172.0,02-3675-0116,,서울특별시 종로구 대학로 120 (동숭동),37.5818372,127.00227960000008,Y,N,N,N,N,N,N,N,N,N,,,,,종로구,서울특별시
FC003832,실험무대702,1.0,민간(대학로 외),,50.0,,,서울특별시 서대문구 홍제천로 116 (연희동),37.5751406,126.9269318,N,N,N,N,N,N,N,N,N,N,,,,,서대문구,서울특별시
FC002650,성음아트센터,3.0,민간(대학로 외),2019.0,372.0,031-703-2064,http://searts.or.kr/,경기도 성남시 분당구 판교역로14번길 15 (백현동),37.3850359,127.1109981,N,Y,N,N,N,N,N,N,N,N,,,,,성남시,경기도
FC001682,민송아트홀 (구. 브로드웨이아트홀),2.0,민간(대학로),2017.0,466.0,02-766-8134,http://www.semyung.ac.kr/smenter/sub05_01.do,서울특별시 종로구 대학로 144 (혜화동) 중원빌딩 6층,37.5839463,127.00204540000004,N,N,N,N,N,N,N,N,N,N,,,,,종로구,서울특별시
FC004116,재난피해자권리센터 우리함께,1.0,기타(비공연장),,0.0,,,서울특별시 중구 창경궁로 6 (충무로5가),37.5629291,126.9988258,N,N,N,N,N,N,N,N,N,N,,,,,중구,서울특별시
FC000188,한양레퍼토리씨어터,1.0,민간(대학로),2003.0,126.0,02-764-6460,http://www.hyrtheatre.com/theater/info.php,서울특별시 종로구 대학로 144 (혜화동) 중원빌딩 지하1층,37.5839463,127.00204540000004,N,N,N,N,N,N,N,N,N,N,,,,,종로구,서울특별시
FC003566,원효로 예수성심성당,1.0,기타(비공연장),,0.0,,,서울특별시 용산구 원효로19길 49 (원효로4가),37.5342094,126.9545934,N,N,N,N,N,N,N,N,N,N,,,,,용산구,서울특별시
FC004067,Bibistudio,1.0,민간(대학로 외),,12.0,,,서울특별시 은평구 갈현로 250 (갈현동),37.6191498,126.915675,N,N,N,N,N,N,N,N,N,N,,,,,은평구,서울특별시
FC001218,드림시어터 [대학로],1.0,민간(대학로),2012.0,126.0,010-3749-0221,https://bulltheatre.modoo.at/?link=cb6i15sg,서울특별시 종로구 대학로10길 15 - 11,37.5822206,127.00276359999998,N,N,N,N,N,N,N,N,N,N,,,,,종로구,서울특별시
FC004018,라온씨어터,1.0,민간(대학로),,0.0,,,서울특별시 종로구 대학로10길 12 (동숭동) 3층,37.5816149,127.0028075,N,N,N,N,N,N,N,N,N,N,,,,,종로구,서울특별시
FC001207,컬쳐씨어터(구. 휴먼시어터),1.0,민간(대학로),2016.0,120.0,010-9012-6001,,서울특별시 종로구 대학로8가길 80 (동숭동),37.5824518,127.0032519,Y,N,N,N,N,N,N,Y,Y,N,,,,,종로구,서울특별시
FC002471,군포시평생학습원,1.0,공공(기타),2006.0,87.0,031-390-3050,https://www.happygp.or.kr/,경기도 군포시 고산로 263 (당동),37.3463508,126.9430831,N,N,N,Y,Y,Y,Y,N,N,Y,,,,,군포시,경기도
FC000806,틴틴홀,1.0,민간(대학로),2003.0,244.0,02-764-8760,,서울특별시 종로구 대학로10길 24 (동숭동),37.5815685,127.00353990000008,N,N,N,N,N,N,N,N,N,N,,,,,종로구,서울특별시
FC003921,소다아트홀,1.0,민간(대학로 외),,0.0,,,"경기도 김포시 김포한강9로75번길 180 (구래동, 두원타워)",37.6449162,126.6244803,N,N,N,N,N,N,N,N,N,N,,,,,김포시,경기도
FC003915,온맘씨어터,1.0,민간(대학로 외),,100.0,,,서울특별시 마포구 어울마당로 94-8 (서교동),37.5531403,126.9222208,N,N,N,N,N,N,N,N,N,N,,,,,마포구,서울특별시
FC002677,소극장 플랫폼74,1.0,민간(대학로),2020.0,70.0,010-5150-9402,,서울특별시 종로구 동숭길 74 (동숭동),37.5815333,127.0043015,N,N,N,N,N,N,N,N,N,N,,,,,종로구,서울특별시
FC000774,대학로단막극장,1.0,민간(대학로),1996.0,66.0,02-765-1544,,서울특별시 종로구 동숭4길 16-3 (동숭동),37.5832792,127.00456329999996,N,N,N,N,N,N,N,N,N,N,,,,,종로구,서울특별시
FC004135,창작집단 발아 랩실,1.0,기타(비공연장),,0.0,,,인천광역시 중구 참외전로27번길 2 (송월동1가),37.4798981,126.6233544,N,N,N,N,N,N,N,N,N,N,,,,,중구,인천광역시
FC003936,컬러드,1.0,기타(비공연장),,0.0,,,서울특별시 강남구 학동로3길 19 (논현동),37.512784,127.0220556,N,N,N,N,N,N,N,N,N,N,,,,,강남구,서울특별시
FC004020,브로일링커피 강동점,1.0,기타(비공연장),,0.0,010-3211-0435,,서울특별시 강동구 성내로10길 9-6 (성내동),37.5282637,127.1249507,N,N,N,N,N,N,N,N,N,N,,,,,강동구,서울특별시
FC002438,서울시민청,2.0,공공(기타),,100.0,02-739-5813,http://www.seoulcitizenshall.kr/,서울특별시 중구 세종대로 110 (태평로1가),37.5665845,126.9782041,N,Y,N,N,Y,Y,Y,N,Y,Y,,,,,중구,서울특별시
FC001121,나인진홀 (구.청년극장),3.0,민간(대학로),2010.0,208.0,070-4618-5632,,서울특별시 종로구 동숭길 47 (동숭동),37.580304,127.00424399999996,N,N,N,N,N,N,N,N,N,N,,,,,종로구,서울특별시
FC000516,열린극장,1.0,민간(대학로),1999.0,150.0,02-743-6474,,서울특별시 종로구 창경궁로 258-12 (명륜2가),37.5836706,127.0003428,N,N,N,N,N,N,N,N,N,N,,,,,종로구,서울특별시
FC001142,R&J씨어터(구. 연진아트홀),1.0,민간(대학로),2006.0,127.0,02-747-1912,,서울특별시 종로구 낙산길 14 (동숭동),37.5802937,127.00526530000002,N,N,N,N,N,N,N,N,N,N,,,,,종로구,서울특별시
FC000014,충무아트센터,5.0,공공(문예회관),2005.0,2045.0,02-2230-6601,www.caci.or.kr,서울특별시 중구 퇴계로 387 (흥인동),37.5660139,127.01481309999996,Y,Y,N,Y,N,Y,Y,Y,N,Y,,,,,중구,서울특별시
FC001442,호은아트홀 (구. 키득키득아트홀),1.0,민간(대학로),2013.0,100.0,02-3673-1589,https://www.facebook.com/2012whoau,서울특별시 종로구 동숭길 68 (동숭동),37.5813131,127.0043055,N,N,N,N,N,N,N,N,N,N,,,,,종로구,서울특별시
FC000825,피카소소극장,1.0,민간(대학로),2008.0,140.0,02-3672-7971,https://picassotheater.modoo.at/,서울특별시 종로구 대학로11길 38-11 (명륜4가),37.582654,127.00063039999998,N,N,N,N,N,N,N,N,N,N,,,,,종로구,서울특별시
FC004006,피사체 LAB,1.0,민간(대학로 외),,0.0,,,서울특별시 서초구 나루터로15길 30-9 (잠원동),37.5173461,127.0175763,N,N,N,N,N,N,N,N,N,N,,,,,서초구,서울특별시
FC001131,소월아트홀 (성동문화회관),1.0,공공(문예회관),1989.0,520.0,02-2204-6400,http://www.sdfac.or.kr/main/index.html,서울특별시 성동구 왕십리로 281,37.559276,127.03599370000006,N,N,N,N,Y,Y,Y,Y,N,Y,,,,,성동구,서울특별시
FC000332,평택시북부문예회관,2.0,공공(문예회관),1991.0,913.0,031-8053-3570,https://www.pyeongtaek.go.kr/alrimi/contents.do?mId=0204000000,경기도 평택시 경기대로 1366 (서정동),37.0668137,127.06494380000004,N,N,N,N,N,N,N,N,N,Y,,,,,평택시,경기도
FC002672,코스모40,1.0,기타(비공연장),,0.0,032-575-2319,http://cosmo40.com,인천광역시 서구 장고개로231번길 9 (가좌동),37.4865316,126.677912,Y,Y,N,N,N,N,N,N,N,Y,,,,,서구,인천광역시
FC001860,김희수아트센터,2.0,민간(대학로 외),2010.0,140.0,02-962-7911,http://www.soorimcf.or.kr/index.html,서울특별시 동대문구 홍릉로 118 (청량리동),37.5905713,127.0429186,N,Y,N,N,N,Y,N,N,N,Y,,,,,동대문구,서울특별시
FC002630,충동소극장,1.0,민간(대학로 외),,30.0,010-3906-8835,http://www.choongdong.com/,서울특별시 광진구 뚝섬로36길 49 (자양동),37.5322705,127.0706336,N,N,N,N,N,N,N,N,N,N,,,,,광진구,서울특별시
FC001216,서강대 메리홀,2.0,민간(대학로 외),1970.0,528.0,02-705-8743,maryhall.sogang.ac.kr/,서울특별시 마포구 백범로 35 서강대학교,37.5499528,126.9391127,N,N,N,N,N,N,N,N,N,Y,,,,,마포구,서울특별시
FC000032,강북문화예술회관,2.0,공공(문예회관),2001.0,839.0,02-944-8979,https://www.gbcf.or.kr/,서울특별시 강북구 삼각산로 85 (수유동),37.6407764,127.01315840000008,Y,N,Y,N,N,Y,Y,Y,Y,Y,,,,,강북구,서울특별시
FC000055,윤당아트홀,2.0,민간(대학로 외),2009.0,417.0,02-546-8095,http://www.ydart.co.kr/,서울특별시 강남구 언주로 844 (신사동),37.5256519,127.03371519999996,N,N,N,N,N,Y,N,Y,Y,Y,,,,,강남구,서울특별시
FC003986,효원소극장,1.0,민간(대학로 외),,0.0,,,서울특별시 강남구 선릉로 603 (논현동) 지하1층,37.5107746,127.0434538,N,N,N,N,N,N,N,N,N,N,,,,,강남구,서울특별시
FC002624,졸탄극장,1.0,민간(대학로),,179.0,070-8896-9401,,서울특별시 종로구 이화장길 58 (이화동),37.5778955,127.0046323,N,N,N,N,N,N,N,N,N,N,,,,,종로구,서울특별시
FC000013,인천문화예술회관,5.0,공공(문예회관),1994.0,2258.0,032-427-8401,http://art.incheon.go.kr/,인천광역시 남동구 예술로 149 (구월동),37.4477666,126.70008329999996,N,N,N,Y,Y,Y,Y,Y,Y,Y,,,,,남동구,인천광역시
FC000382,티오엠씨어터(구. 문화공간필링),3.0,민간(대학로),2014.0,555.0,00-1544-8303,http://www.towntom.com/,서울특별시 종로구 대학로8가길 85 (동숭동),37.5822467,127.00371659999996,N,N,N,N,N,N,N,N,N,Y,,,,,종로구,서울특별시
FC004024,아트스페이스 다스름,1.0,민간(대학로 외),,80.0,,,경기도 여주시 소양로 33 (하동),37.295693,127.629877,N,N,N,N,N,N,N,N,N,N,,,,,여주시,경기도
FC001310,인천아트플랫폼,1.0,공공(기타),2009.0,30.0,032-760-1000,http://www.inartplatform.kr,인천광역시 중구 제물량로218번길 3 - 0 인천아트플랫폼,37.4729295,126.6200473,N,Y,N,N,N,Y,Y,Y,Y,N,,,,,중구,인천광역시
FC002770,성북미디어문화마루 꿈빛극장,1.0,공공(기타),2021.0,323.0,02-6953-3201,,서울특별시 성북구 길음로7길 20 (길음동),37.6037552,127.0222037,N,N,N,N,N,N,N,N,N,N,,,,,성북구,서울특별시
FC001196,구리아트홀,4.0,공공(문예회관),2013.0,1030.0,031-580-7900,https://www.guriart.or.kr/PageLink.do,경기도 구리시 아차산로 453,37.5954358,127.12996380000004,N,Y,N,Y,Y,Y,Y,Y,Y,Y,,,,,구리시,경기도
FC000926,KBS 수원아트홀,1.0,공공(기타),2008.0,190.0,031-216-5201,http://www.kbssuwonart.co.kr/,경기도 수원시 팔달구 인계로 123 (인계동),37.271128,127.03089,N,Y,N,N,N,Y,N,N,N,Y,,,,,수원시,경기도
FC004207,진아트센터,1.0,민간(대학로 외),,189.0,,https://jinartcenter.modoo.at/?link=1zwath2f,경기도 수원시 영통구 매영로39번길 5 (매탄동),37.2695677,127.0471772,N,N,N,N,N,N,N,N,N,N,,,,,수원시,경기도
FC000633,토당청소년수련관,1.0,공공(기타),2003.0,286.0,031-970-0031,http://todangyc.or.kr/,경기도 고양시 덕양구 중앙로633번길 25 (토당동),37.622854,126.82776650000004,Y,Y,Y,N,N,Y,Y,N,Y,Y,,,,,고양시,경기도
FC000158,인천중구문화회관,1.0,공공(문예회관),2012.0,638.0,032-760-6400,http://artcenter.icjg.go.kr/,인천광역시 중구 축항대로296번길 81 (신흥동3가),37.4375263,126.6272199,N,N,N,N,N,Y,N,N,N,Y,,,,,중구,인천광역시
FC001266,소극장 공유,1.0,민간(대학로),2009.0,80.0,010-4879-0255,https://theater0you.modoo.at/,서울특별시 종로구 창경궁로 303 (혜화동),37.5875719,127.0032006,N,N,N,N,N,N,N,N,N,N,,,,,종로구,서울특별시
FC000134,양주문화예술회관,3.0,공공(문예회관),1997.0,1851.0,031-828-9723,https://www.yjuc.or.kr/main/index.asp,경기도 양주시 광적면 부흥로618번길 303 양주문화예술회관,37.8131434,126.97215749999998,N,N,N,N,N,N,Y,Y,N,Y,,,,,양주시,경기도
FC002747,TINC This is Not a Church(구. 명성교회),1.0,민간(대학로),2020.0,0.0,,https://t-i-n-c.com/Info,서울특별시 성북구 동소문로10길 34-16 (삼선동4가),37.5888231,127.0108788,N,N,N,N,N,N,N,N,N,N,,,,,성북구,서울특별시
FC000127,고양아람누리,5.0,공공(문예회관),2007.0,4640.0,00-1577-7766,http://www.artgy.or.kr/aram/introduction.aspx,경기도 고양시 일산동구 중앙로 1286 (마두동) 고양아람누리,37.6614074,126.77433789999998,Y,Y,N,Y,N,Y,N,Y,N,Y,,,,,고양시,경기도
FC000784,금나래아트홀,1.0,공공(문예회관),2008.0,552.0,02-2627-2981,www.gcfac.or.kr,서울특별시 금천구 시흥대로73길 70 (시흥동),37.4564588,126.8959125,N,Y,Y,N,N,Y,Y,Y,N,Y,,,,,금천구,서울특별시
FC000570,동국대학교,4.0,민간(대학로 외),2008.0,732.0,02-2260-8901,http://www.xn--3i0by5pyxij4d72bsi666f.com/,서울특별시 중구 필동로1길 30 (필동3가),37.5582585,127.00324509999996,N,N,N,N,N,N,N,N,N,Y,,,,,중구,서울특별시
FC002766,보노마루,1.0,공공(기타),,151.0,031-481-0571,https://blog.naver.com/cityansan/222155306418,경기도 안산시 상록구 본오로 182 (본오동),37.3012795,126.8673218,N,N,N,N,N,N,N,N,N,Y,,,,,안산시,경기도
FC000039,나루아트센터,3.0,공공(문예회관),2005.0,785.0,02-2049-4711,http://www.naruart.or.kr/,서울특별시 광진구 능동로 76 (자양동),37.5373529,127.07052479999992,N,Y,N,N,N,Y,Y,Y,Y,Y,,,,,광진구,서울특별시
FC004051,피카디리플러스,1.0,민간(대학로 외),,0.0,,서울 종로구 돈화문로5가길 1 3층 304호,서울특별시 종로구 돈화문로5가길 1 (돈의동),37.5710275,126.9912303,N,N,N,N,N,N,N,N,N,N,,,,,종로구,서울특별시
FC000023,인천어린이과학관,2.0,공공(기타),2011.0,412.0,032-550-3300,https://www.insiseol.or.kr/culture/icsmuseum/,인천광역시 계양구 방축로 21(방축동 108-1)  인천어린이과학관,37.55169662137111,126.739895619632,N,Y,Y,N,Y,Y,N,N,N,Y,,,,,계양구,인천광역시
FC001298,루미나아트홀 (구.시온아트홀),1.0,민간(대학로),2017.0,144.0,070-8719-9106,https://www.wwww.theblessed.net/,서울특별시 종로구 대학로8가길 52 (동숭동),37.5829439,127.00262709999993,N,N,N,N,N,N,N,N,N,N,,,,,종로구,서울특별시
FC000528,동덕여대공연예술센터,1.0,민간(대학로),2001.0,411.0,02-940-4578,https://www.dongduk.ac.kr/kor/intro/subinstitute05.do,서울특별시 종로구 동숭길 126 (동숭동),37.5836998,127.0032999,N,N,N,N,N,Y,N,Y,N,Y,,,,,종로구,서울특별시
FC000194,경복궁아트홀,1.0,민간(대학로 외),2012.0,155.0,02-735-0506,https://gbgarthall.modoo.at/,서울특별시 종로구 자하문로 82 (효자동),37.5833005,126.97069980000003,N,N,N,N,N,N,N,N,N,N,,,,,종로구,서울특별시
FC000214,남동소래아트홀,2.0,공공(문예회관),2011.0,2235.0,032-427-8401,http://www.namdongcf.or.kr,인천광역시 남동구 아암대로1437번길 32 (논현동),37.3874966,126.7246381,N,N,N,N,N,Y,N,N,N,Y,,,,,남동구,인천광역시
FC002773,대중아트홀,1.0,민간(대학로 외),,0.0,032-565-4529,,인천광역시 서구 검단로768번1길 18 (불로동),37.612644,126.6850428,N,N,N,N,N,N,N,N,N,N,,,,,서구,인천광역시
FC000808,과천시민회관,2.0,공공(문예회관),1995.0,1309.0,02-504-7300,http://www.gccs.or.kr/dev_home/facilities/status.php,경기도 과천시 통영로 5 (중앙동),37.4279091,126.98950450000008,Y,Y,N,N,N,Y,N,Y,N,Y,,,,,과천시,경기도
FC000300,학산소극장,1.0,공공(기타),2004.0,114.0,032-866-3970,http://www.haksanculture.or.kr/theatre/haksantheater.php,인천광역시 남구 인하로 126 (용현동),37.4494551,126.661876,Y,Y,Y,N,N,Y,Y,N,Y,Y,,,,,남구,인천광역시
FC000091,양천문화회관,3.0,공공(문예회관),1998.0,1320.0,02-2646-5870,http://www.yangcheon.go.kr/art/art/main.do,서울특별시 양천구 목동서로 367 (신정동),37.5164555,126.8632321,N,N,N,N,N,Y,Y,Y,Y,Y,,,,,양천구,서울특별시
FC002760,라온아트홀,1.0,민간(대학로),,206.0,,,서울특별시 종로구 대학로10길 11 (동숭동),37.581853,127.0028053,N,Y,N,N,N,N,N,N,N,N,,,,,종로구,서울특별시
FC000028,강동아트센터,5.0,공공(문예회관),2011.0,3240.0,02-440-0500,https://www.gangdongarts.or.kr/,서울특별시 강동구 동남로 870 (상일동),37.5512621,127.15761910000003,N,Y,N,Y,N,Y,Y,Y,Y,Y,,,,,강동구,서울특별시
FC002857,광명문화예술교육지원센터 광명극장,1.0,공공(기타),2017.0,480.0,02-2621-8890,http://gm-arte.or.kr/index.php,경기도 광명시 철망산로 2(하안동),37.4667641,126.8699008,N,N,N,N,N,N,N,N,N,Y,,,,,광명시,경기도
FC002433,용인시평생학습관 (여성회관),2.0,공공(기타),2004.0,761.0,00-1577-1122,https://lll.yongin.go.kr/,경기도 용인시 수지구 문정로7번길 15 (풍덕천동),37.3202647,127.0953462,N,N,N,N,N,Y,Y,Y,Y,Y,,,,,용인시,경기도
FC001167,군포문화예술회관,3.0,공공(문예회관),1998.0,2573.0,031-390-3500,http://www.gunpoart.net/?pid=B,경기도 군포시 고산로 599 (산본동),37.3661695,126.92759120000004,Y,N,Y,Y,N,Y,Y,Y,Y,Y,,,,,군포시,경기도
FC002833,청라복합문화센터 블루노바홀,1.0,공공(문예회관),2021.0,480.0,032-580-1196,https://iscf.kr/_new/html/centerIntro/cheongna.php,인천광역시 서구 청라대로 20 (청라동),37.5240132,126.6341822,N,Y,N,N,N,Y,N,Y,N,Y,,,,,서구,인천광역시
FC000251,중랑구민회관,2.0,공공(문예회관),1994.0,648.0,02-2207-6130,http://www.jungnangimc.or.kr/content.do?sgrp=S01&siteCmsCd=CM0001&topCmsCd=CM0007&cmsCd=CM0057&pnum=1&cnum=1,서울특별시 중랑구 면목로 238 (면목동),37.5739185,127.0850931,Y,N,N,N,N,Y,N,N,N,Y,,,,,중랑구,서울특별시
FC002820,우리소극장 [대학로],1.0,민간(대학로),,114.0,070-4618-5632,https://blog.naver.com/marupro01,서울특별시 종로구 이화장길 86-11(동숭동),37.5792262,127.0051573,N,N,N,N,N,N,N,N,N,N,,,,,종로구,서울특별시
FC001247,올림픽공원,12.0,공공(기타),1986.0,41376.0,02-410-1114,http://www.olympicpark.co.kr/,서울특별시 송파구 올림픽로 424 올림픽공원 (방이동),37.52112,127.12836360000004,Y,Y,Y,N,N,N,N,N,N,Y,,,,,송파구,서울특별시
FC001141,연극실험실 혜화동1번지,1.0,민간(대학로),1993.0,70.0,010-8946-4164,https://www.facebook.com/hhdlab,서울특별시 종로구 창경궁로35길 7 (혜화동),37.586337,127.00133069999993,N,N,N,N,N,N,N,N,N,N,,,,,종로구,서울특별시
FC002819,설렘아트홀,1.0,민간(대학로 외),,55.0,010-3518-7843,https://arthallserlem.modoo.at/,서울특별시 광진구 능동로19길 23(화양동),37.5470491,127.0723822,N,N,N,N,N,N,N,N,N,Y,,,,,광진구,서울특별시
FC002829,라이트 하우스,1.0,민간(대학로 외),,0.0,,,서울특별시 성북구 삼선교로10다길 74(삼선동1가),37.5837374,127.0084146,N,N,N,N,N,N,N,N,N,N,,,,,성북구,서울특별시
FC004142,언더독 뮤지엄,1.0,기타(비공연장),,0.0,,https://www.underdogmuseum.com/,서울특별시 마포구 양화로12길 8-7 (서교동),37.5516642,126.9179592,N,Y,N,N,N,N,N,N,N,N,,,,,마포구,서울특별시
FC000036,관악아트홀 (구. 관악문화관),1.0,공공(문예회관),2002.0,700.0,02-828-5700,http://www.gwanakcullib.seoul.kr/ecolas-dl/new_kwan/intro.php,서울특별시 관악구 신림로3길 35 (신림동),37.4675136464572,126.944804505456,Y,N,N,N,N,N,N,N,N,Y,,,,,관악구,서울특별시
FC002815,맥거핀 서교,1.0,민간(대학로 외),,0.0,010-8324-8454,,서울특별시 마포구 양화로7길 28(서교동),37.5519656,126.9146894,N,N,N,N,N,N,N,N,N,N,,,,,마포구,서울특별시
FC000018,안산문화예술의전당,4.0,공공(문예회관),2004.0,3429.0,031-481-4000,http://www.ansanart.com/,경기도 안산시 단원구 화랑로 312 (고잔동),37.3196723,126.82255570000008,N,Y,N,Y,N,Y,Y,N,Y,Y,,,,,안산시,경기도
FC004179,마이원타워,1.0,민간(대학로 외),,0.0,,https://www.my-one.co.kr/,서울특별시 성북구 성북로 5-9 (성북동1가),37.5885957,127.00528,N,N,N,N,N,N,N,N,N,N,,,,,성북구,서울특별시
FC002976,지블레싱소극장,1.0,민간(대학로 외),,40.0,010-7225-1219,,서울특별시 마포구 신촌로14길 24(노고산동),37.5550779,126.9332973,N,N,N,N,N,N,N,N,N,Y,,,,,마포구,서울특별시
FC004164,디너씨어터,1.0,민간(대학로 외),,0.0,,,서울특별시 송파구 백제고분로48길 7 (방이동),37.5116556,127.1141774,N,N,N,N,N,N,N,N,N,N,,,,,송파구,서울특별시
FC004040,쌍용아파트,1.0,기타(비공연장),,0.0,,,"서울특별시 동대문구 한천로58길 47 (이문동, 쌍용아파트) 상가동 305호",37.6007508,127.0687695,N,N,N,N,Y,N,N,N,N,N,,,,,동대문구,서울특별시
FC002874,콜드슬립(koldsleep),1.0,민간(대학로 외),,0.0,010-2721-8699,,서울특별시 강북구 인수봉로 301(수유동),37.6456351,127.0104457,N,N,N,N,N,N,N,N,N,N,,,,,강북구,서울특별시
FC004162,새싹타워,1.0,민간(대학로 외),,75.0,,,서울특별시 강서구 강서로 463 (마곡동),37.5669464,126.8404463,N,N,N,N,N,N,N,N,N,N,,,,,강서구,서울특별시
FC000526,연우소극장,1.0,민간(대학로),1987.0,100.0,02-744-7090,https://iyeonwoo.modoo.at/,서울특별시 종로구 창경궁로35길 21 (혜화동),37.5869515,127.00175280000008,N,N,N,N,N,N,N,N,N,N,,,,,종로구,서울특별시
FC004089,양산박 스튜디오,1.0,민간(대학로 외),,0.0,,https://sites.google.com/view/yangsanbak,서울특별시 성북구 성북로16길 11 (성북동),37.5938418,127.0001548,N,N,N,N,N,N,N,N,N,N,,,,,성북구,서울특별시
FC000845,인천서구문화회관,3.0,공공(문예회관),1995.0,1401.0,032-580-1150,http://www.iscf.kr,인천광역시 서구 서달로 190 (가정동),37.5156728,126.6798708,N,Y,N,N,N,Y,N,Y,N,Y,,,,,서구,인천광역시
FC002753,오페라하우스 [신도림],2.0,공공(기타),2008.0,533.0,02-867-2209,https://www.guroartsvalley.or.kr/user/overall/overallArt8.do,서울특별시 구로구 새말로 107-32 (구로동),37.5079896,126.8909267,N,N,N,N,N,N,N,N,N,N,,,,,구로구,서울특별시
FC004075,시윤아트홀,1.0,민간(대학로),,0.0,02-1661-3123,,서울특별시 종로구 대학로 116 (동숭동),37.5815327,127.0023365,N,N,N,N,N,N,N,N,N,N,,,,,종로구,서울특별시
FC003918,더더더,1.0,민간(대학로 외),,0.0,,,서울특별시 중구 을지로38길 9-4 (광희동1가),37.5660433,127.0039785,N,N,N,N,N,N,N,N,N,N,,,,,중구,서울특별시
FC004060,카페 모베터블루스,1.0,기타(비공연장),,0.0,,,서울특별시 종로구 동숭4길 4 (동숭동),37.5830523,127.0039951,N,N,N,N,N,N,N,N,N,N,,,,,종로구,서울특별시
FC004045,마을극장 흰고무신,1.0,공공(기타),,0.0,,,서울특별시 도봉구 시루봉로15마길 13 (방학동),37.6681272,127.0315428,N,N,N,N,N,N,N,N,N,N,,,,,도봉구,서울특별시
FC000568,남산골한옥마을,7.0,공공(문예회관),2007.0,452.0,02-2261-0500,https://sgtt.kr/,서울특별시 중구 퇴계로34길 28 (필동2가),37.5588388,126.99407270000006,N,Y,N,N,N,Y,N,N,N,Y,,,,,중구,서울특별시
FC002854,초록씨어터,1.0,민간(대학로),,160.0,070-4870-1931,https://parangtheatre.modoo.at/,서울특별시 종로구 대학로 128(동숭동),37.5827051,127.0021572,N,N,N,N,N,N,N,N,N,N,,,,,종로구,서울특별시
FC001884,달밤엔씨어터,1.0,민간(대학로),2014.0,139.0,02-985-5654,https://www.instagram.com/dbncom/,서울특별시 종로구 대학로14길 18-2 (혜화동),37.5839551,127.00265549999996,N,N,N,N,N,N,N,N,N,N,,,,,종로구,서울특별시
FC000819,고양어울림누리,3.0,공공(문예회관),2004.0,2156.0,00-1577-7766,http://www.artgy.or.kr/,경기도 고양시 덕양구 어울림로 33 (성사동),37.6498532,126.83498459999998,Y,Y,N,Y,N,Y,Y,Y,Y,Y,,,,,고양시,경기도
FC001125,국립정동극장 세실 (구.세실극장),1.0,국립,1976.0,234.0,02-765-7500,https://www.jeongdong.or.kr/portal/main/main.do,서울특별시 중구 세종대로19길 16 (정동),37.5667701,126.97608230000004,N,N,N,N,N,N,N,N,N,N,,,,,중구,서울특별시
FC002698,광교레이크아트홀,1.0,민간(대학로 외),,106.0,031-216-7179,,"경기도 수원시 영통구 광교호수공원로 277 (원천동, 광교중흥에스클래스)",37.2839418,127.056778,N,N,N,N,N,N,N,N,N,N,,,,,수원시,경기도
FC003839,아라아트홀,1.0,민간(대학로),,0.0,,,서울특별시 종로구 대학로8가길 30 (동숭동),37.582294,127.0025606,N,N,N,N,N,N,N,N,N,N,,,,,종로구,서울특별시
FC004139,시작공간 일부,1.0,민간(대학로 외),,0.0,032-766-5975,https://space1bu.ifac.or.kr/,인천광역시 중구 참외전로 100 (전동),37.4771143,126.6295017,N,N,N,N,N,N,N,N,N,N,,,,,중구,인천광역시
FC002839,서울예술대학교,4.0,민간(대학로 외),,0.0,031-412-7100,,경기도 안산시 단원구 예술대학로 171(고잔동),37.3334141,126.8362748,N,N,N,N,N,N,N,N,N,Y,,,,,안산시,경기도
FC003838,공간 파란여우,1.0,민간(대학로 외),,0.0,,https://www.spacecloud.kr/space/49633,서울특별시 성북구 삼선교로16길 14 (삼선동2가 110),37.587684,127.0104435,N,N,N,N,N,N,N,N,N,N,,,,,성북구,서울특별시
FC001329,창동극장,1.0,민간(대학로 외),2014.0,100.0,070-8749-3205,http://cdt.modoo.at/,서울특별시 도봉구 노해로 391 (창동),37.6527874,127.05159359999992,N,N,N,N,N,N,N,N,N,N,,,,,도봉구,서울특별시
FC001201,"제이원 씨어터 (구. 서완소극장, 구. 씨어터고리)",1.0,민간(대학로),2009.0,98.0,02-926-4937,,서울특별시 종로구 창경궁로34길 18-12,37.5841705,127.00042899999994,Y,N,N,N,N,N,N,N,N,N,,,,,종로구,서울특별시
FC002876,한홀 소극장,1.0,민간(대학로 외),,96.0,031-796-6556,https://hanholthearter.modoo.at/,경기도 하남시 신장로 58(천현동),37.5353971,127.2109957,N,N,N,N,N,N,N,N,N,N,,,,,하남시,경기도
FC004157,뉴컬쳐커피 [김포],1.0,기타(비공연장),,20.0,,,경기도 김포시 김포한강1로 238 (운양동),37.6527341,126.6831625,N,N,N,N,N,N,N,N,N,N,,,,,김포시,경기도
FC000216,부평아트센터,2.0,공공(문예회관),2010.0,1191.0,032-500-2000,http://www.bpart.kr/,인천광역시 부평구 아트센터로 166 (십정동),37.4819229,126.7049151,Y,Y,Y,Y,Y,Y,Y,Y,Y,Y,,,,,부평구,인천광역시
FC002912,동네극장,1.0,민간(대학로 외),,96.0,02-333-0416,https://www.instagram.com/local_book_club/,서울특별시 동대문구 안암로6길 19(용두동),37.5791469,127.0259164,N,N,N,N,N,N,N,N,N,Y,,,,,동대문구,서울특별시
FC000059,영등포아트홀,1.0,공공(문예회관),2009.0,526.0,02-2670-4024,www.ydpcf.or.kr,서울특별시 영등포구 국회대로 596 (당산동3가),37.526038,126.90008899999998,N,N,N,N,N,Y,Y,Y,Y,Y,,,,,영등포구,서울특별시
FC004063,경민대학교,1.0,기타(비공연장),,0.0,031-828-7700,,경기도 의정부시 서부로 545 (가능동),37.7461243,127.0251315,N,Y,Y,N,N,N,N,N,N,Y,,,,,의정부시,경기도
FC002906,다리 소극장,1.0,민간(대학로 외),,200.0,02-338-7831,,서울특별시 마포구 월드컵북로2길 49(동교동),37.5572115,126.923029,N,N,N,N,N,N,N,N,N,N,,,,,마포구,서울특별시
FC000788,마포아트센터,3.0,공공(문예회관),2002.0,1475.0,02-3274-8500,http://www.mapoartcenter.or.kr/,서울특별시 마포구 대흥로20길 28 (대흥동),37.549905454297104,126.945526907783,N,N,N,N,N,Y,N,Y,N,Y,,,,,마포구,서울특별시
FC000155,잡월드 나래울극장,2.0,공공(기타),2012.0,504.0,00-1644-1333,http://koreajobworld.or.kr/Index.do,경기도 성남시 분당구 분당수서로 501(정자동 4-6),37.3784839888856,127.105671818315,N,Y,Y,Y,Y,Y,Y,N,Y,Y,,,,,성남시,경기도
FC000823,용인시문화예술회관,1.0,공공(문예회관),1989.0,626.0,031-260-3300,http://yicf.or.kr/main/,경기도 용인시 처인구 중부대로1392번길 15 (김량장동),37.2317133,127.19885390000002,N,Y,N,N,N,Y,Y,N,N,Y,,,,,용인시,경기도
FC001331,극장 봄 (봄소극장),1.0,민간(대학로),2011.0,55.0,070-4127-8318,http://theaterbom.modoo.at,서울특별시 성북구 삼선교로 14 (삼선동1가),37.5875069,127.00735239999996,N,N,N,N,N,N,N,N,N,N,,,,,성북구,서울특별시
FC003880,아시티스,1.0,민간(대학로 외),,0.0,,http://www.asitispace.com/,서울특별시 관악구 쑥고개로 122 (봉천동),37.4787676,126.9500117,N,N,N,N,N,N,N,N,N,Y,,,,,관악구,서울특별시
FC000138,성미산마을극장 향,1.0,민간(대학로 외),2009.0,101.0,02-322-0345,http://cafe.naver.com/sungmisantheater.cafe,서울특별시 마포구 월드컵로26길 39 (성산동),37.5594242,126.90989319999994,N,N,N,N,N,N,Y,N,N,Y,,,,,마포구,서울특별시
FC002795,소디스 펍,1.0,기타(비공연장),,0.0,02-6497-9667,,서울특별시 관악구 봉천로 544-1 (봉천동),37.4782332,126.9581764,N,N,N,N,N,N,N,N,N,N,,,,,관악구,서울특별시
FC000785,대학로 자유극장 (자유문화발전소),1.0,민간(대학로),2005.0,233.0,02-743-0661,,서울특별시 종로구 대학로12길 31 (동숭동),37.5827026,127.00360520000004,N,N,N,N,N,N,N,N,N,Y,,,,,종로구,서울특별시
FC000815,M극장,1.0,민간(대학로 외),2006.0,150.0,02-578-6812,http://www.mtheater.co.kr/,서울특별시 강남구 논현로4길 36 (개포동),37.4736304,127.05291920000002,N,N,N,N,N,N,N,N,N,Y,,,,,강남구,서울특별시
FC001938,IGC 글로벌캠퍼스,1.0,공공(기타),2012.0,389.0,032-626-0590,http://www.igc.or.kr/vr/index.html?startscene=scene_0210,인천광역시 연수구 송도문화로 119 (송도동),37.3749282,126.6684875,N,N,N,N,N,Y,Y,N,N,Y,,,,,연수구,인천광역시
FC000020,세종문화회관,8.0,공공(문예회관),1978.0,5372.0,02-399-1000,http://www.sejongpac.or.kr/,서울특별시 종로구 세종대로 175 (세종로),37.5725254,126.97564290000004,N,N,N,N,N,Y,Y,N,N,Y,,,,,종로구,서울특별시
FC004098,모모씨어터,1.0,민간(대학로),2023.0,0.0,,,서울특별시 종로구 성균관로 15-8 (명륜3가),37.5839742,126.9972423,N,N,N,N,N,N,N,N,N,N,,,,,종로구,서울특별시
FC003853,씩씩 뮤직바,1.0,민간(대학로 외),,50.0,,,서울특별시 성동구 왕십리로 114 (성수동1가),37.5476854,127.044746,N,N,N,N,N,N,N,N,N,N,,,,,성동구,서울특별시
FC003851,을지로브이,1.0,기타(비공연장),,0.0,,,서울특별시 중구 충무로 51 (을지로3가) 4층,37.565791,126.9924978,N,N,N,N,N,N,N,N,N,N,,,,,중구,서울특별시
FC001212,예그린씨어터,1.0,민간(대학로),2014.0,202.0,02-6673-0100,http://yegreen.creatorlink.net/,서울특별시 종로구 동숭길 130-5 (동숭동),37.5838441,127.00306009999996,N,N,N,N,N,Y,N,N,N,N,,,,,종로구,서울특별시
FC003045,LG아트센터 서울,2.0,민간(대학로 외),2022.0,1700.0,00-1661-0017,https://www.lgart.com/Home/Main,서울특별시 강서구 마곡중앙로 136(마곡동),37.565363,126.8293888,N,N,N,N,N,N,N,N,N,N,,,,,강서구,서울특별시
FC003303,P&F 씨어터,1.0,민간(대학로 외),,0.0,,,인천광역시 중구 차이나타운로52번길 3(선린동),37.4749371,126.6184396,N,N,N,N,N,N,N,N,N,N,,,,,중구,인천광역시
FC004086,서교스퀘어,1.0,민간(대학로 외),,0.0,,,"서울특별시 마포구 양화로 72 (서교동, 서교동 효성 해링턴 타워)",37.5508138,126.916494,N,N,N,N,N,N,N,N,N,N,,,,,마포구,서울특별시
FC003979,사각사각 플레이스,1.0,공공(기타),,0.0,,,서울특별시 송파구 한가람로 65 (잠실동),37.5176288,127.0867373,N,N,N,N,N,N,N,N,N,N,,,,,송파구,서울특별시
FC004078,카페 옴니버스,1.0,기타(비공연장),,0.0,,,"서울특별시 은평구 진관3로 77 (진관동, 은평뉴타운 구파발)",37.6447083,126.9208769,N,N,N,N,N,N,N,N,N,N,,,,,은평구,서울특별시
FC004061,스페이스 아텔 (space Artel),1.0,민간(대학로 외),,0.0,,https://www.instagram.com/artel_frontdesk,서울특별시 성북구 보문로34다길 31 (동선동3가),37.5926264,127.0208992,N,N,N,N,N,N,N,N,N,N,,,,,성북구,서울특별시
FC002962,인천동구문화체육센터,1.0,공공(문예회관),,495.0,032-772-7700,https://www.icdonggu.go.kr/cscenter/fmcs/1,인천광역시 동구 송림로110번길 5-8(송림동),37.475773,126.6475423,N,N,N,N,N,N,N,N,N,Y,,,,,동구,인천광역시
FC000208,강화문예회관,2.0,공공(문예회관),1991.0,1509.0,032-930-7046,http://www.ghss.or.kr/,인천광역시 강화군 강화읍 고비고개로19번길 12,37.7453095,126.47495819999996,N,N,N,N,N,Y,N,Y,N,Y,,,,,강화군,인천광역시
FC000798,산울림소극장,1.0,민간(대학로 외),1985.0,72.0,02-334-5915,www.sanwoollim.kr,서울특별시 마포구 와우산로 157 (서교동),37.555046,126.9300776,N,N,N,N,N,N,N,N,N,N,,,,,마포구,서울특별시
FC004108,공간 불모지,1.0,기타(비공연장),,0.0,,https://www.instagram.com/bullmoji,인천광역시 연수구 샘말로8번길 11 (연수동),37.4117176,126.6784477,N,N,N,N,N,N,N,N,N,N,,,,,연수구,인천광역시
FC003150,부천아트센터,2.0,공공(기타),2023.0,1749.0,00-1533-0202,https://www.bac.or.kr/home/ko/main,경기도 부천시 소향로 165(중동),37.5021641,126.7663981,N,N,N,N,N,N,N,N,N,N,,,,,부천시,경기도
FC000664,용인문화예술원,1.0,공공(기타),2005.0,290.0,031-323-6371,https://www.yicf.or.kr/PageLink.do,경기도 용인시 처인구 중부대로 1199 (삼가동),37.2406893,127.17915360000006,N,N,N,N,N,Y,Y,Y,Y,Y,,,,,용인시,경기도
FC004111,얼굴박물관 [경기 광주],1.0,기타(비공연장),,0.0,031-765-3522,http://www.visagej.org/,경기도 광주시 남종면 분원길 3-6,37.4940051,127.3021274,N,N,N,N,N,N,N,N,N,Y,,,,,광주시,경기도
FC000017,경기아트센터(구. 경기도문화의전당),6.0,공공(문예회관),1991.0,3032.0,031-230-3200,http://www.ggac.or.kr/,경기도 수원시 팔달구 효원로307번길 20 (인계동) 경기도문화의전당,37.2618899,127.0374319,Y,N,N,N,N,Y,Y,N,N,Y,,,,,수원시,경기도
FC003149,소극장 무극,1.0,민간(대학로),,80.0,010-8234-6602,https://theatremuguek.modoo.at/,서울특별시 종로구 대학로9길 18(명륜4가),37.5818577,127.0008602,N,N,N,N,N,N,N,N,N,N,,,,,종로구,서울특별시
FC001791,노원어린이극장 (구.노원어울림극장),1.0,공공(문예회관),2020.0,204.0,02-2289-3453,https://www.nowonarts.kr/html/,서울특별시 노원구 노해로 502 (상계동),37.6543814,127.06366559999992,N,Y,N,Y,Y,Y,N,N,Y,Y,,,,,노원구,서울특별시
FC004083,이함캠퍼스 [양평],1.0,기타(비공연장),,0.0,,,경기도 양평군 강하면 강남로 370-10 이함미술관 야외무대,37.5021314,127.4251122,N,N,N,N,N,N,N,N,N,N,,,,,양평군,경기도
FC003171,제나아트홀 (구. 룸씨어터),1.0,민간(대학로),,204.0,,,서울특별시 종로구 대학로10길 12(동숭동) 지하1층,37.5816149,127.0028075,N,N,N,N,N,N,N,N,N,N,,,,,종로구,서울특별시
FC002989,스튜디오 블루,1.0,민간(대학로),,180.0,02-725-9207,,서울특별시 종로구 대학로8가길 80(동숭동),37.5824773,127.003268,N,N,N,N,N,N,N,N,N,N,,,,,종로구,서울특별시
FC000046,노원문화예술회관,2.0,공공(문예회관),2004.0,1182.0,02-951-3355,http://www.nowonart.kr/,서울특별시 노원구 중계로 181 (중계동),37.6501653,127.08026270000003,N,Y,N,N,Y,Y,Y,Y,Y,Y,,,,,노원구,서울특별시
FC003827,렌더,1.0,기타(비공연장),,0.0,,,서울특별시 성동구 마조로5길 4 (행당동 4-33) 지하1층,37.5601167,127.0405752,N,N,N,N,N,N,N,N,N,N,,,,,성동구,서울특별시
FC000021,안양아트센터,2.0,공공(문예회관),1989.0,2246.0,031-687-0500,http://www.ayac.or.kr/,경기도 안양시 만안구 문예로36번길 16 (안양동),37.3845562,126.9313681,N,N,N,N,N,Y,Y,Y,Y,Y,,,,,안양시,경기도
FC003018,서울문화재단 대학로극장 쿼드 (예술청),2.0,공공(기타),2022.0,422.0,02-758-2145,https://www.sfac.or.kr/site/SFAC_KOR/09/10911010000002021111611.jsp,서울특별시 종로구 동숭길 122(동숭동),37.583699,127.0037167,N,Y,N,N,N,N,Y,Y,Y,N,,,,,종로구,서울특별시
FC002940,갈산문화예술센터,2.0,공공(문예회관),2022.0,296.0,,,서울특별시 양천구 목동남로 106(신정동),37.510804,126.8701983,N,Y,N,N,N,N,N,N,N,Y,,,,,양천구,서울특별시
FC000052,KT&G 상상마당 대치아트홀,1.0,민간(대학로 외),2006.0,422.0,02-3404-4311,https://www.sangsangmadang.com/info/DC,서울특별시 강남구 영동대로 416 (대치동),37.5065437,127.0653516,N,Y,Y,N,N,Y,Y,N,Y,Y,,,,,강남구,서울특별시
FC002987,동서울대학교,1.0,민간(대학로 외),,0.0,031-720-2114,,경기도 성남시 수정구 복정로 76(복정동),37.4582854,127.1288444,N,N,N,N,N,N,N,N,N,N,,,,,성남시,경기도
FC000564,복사골문화센터,2.0,공공(문예회관),1998.0,712.0,032-320-6300,http://www.bcf.or.kr/coro/conc/conctour/concerttourList3.act,경기도 부천시 장말로 107 (상동),37.49479,126.754049,N,Y,N,Y,N,N,N,N,N,Y,,,,,부천시,경기도
FC003048,극장 PLOT,1.0,민간(대학로 외),2019.0,100.0,010-4334-2862,www.theatreplot.com,서울특별시 서대문구 연세로4길 27(창천동),37.5576008,126.9381984,N,N,N,N,N,N,N,N,N,N,,,,,서대문구,서울특별시
FC000667,파주시민회관,3.0,공공(문예회관),1994.0,1702.0,031-950-1854,http://pajusisul.or.kr/info/info_01_01.php,경기도 파주시 시민회관길 33 (금촌동),37.7594363,126.78032640000004,N,N,N,N,N,Y,Y,Y,Y,Y,,,,,파주시,경기도
FC001537,스튜디오SK,1.0,민간(대학로),2013.0,150.0,02-747-5035,https://studiosk.modoo.at/,서울특별시 종로구 성균관로 15-10 (명륜3가),37.5838639,126.9971044,N,N,N,N,N,N,N,N,N,N,,,,,종로구,서울특별시
FC002894,북아현아트홀,1.0,공공(기타),2021.0,206.0,02-360-8663,https://www.sscmc.or.kr/culture3/,서울특별시 서대문구 북아현로 51(북아현동),37.5618398,126.9554383,N,N,N,N,N,Y,N,N,N,Y,,,,,서대문구,서울특별시
FC000258,미아리고개예술극장(구. 미아리예술극장),1.0,공공(기타),2009.0,74.0,02-6956-9045,https://www.miari-cooptheater.co.kr,서울특별시 성북구 동소문로 177 (돈암동),37.597782,127.02140899999996,N,N,N,N,N,N,N,N,N,N,,,,,성북구,서울특별시
FC000824,이천아트홀,3.0,공공(문예회관),2009.0,1651.0,031-644-2100,https://art.icheon.go.kr/files/intro_02_01.php,경기도 이천시 부악로 40 (중리동),37.2711919,127.4343487,N,N,N,Y,N,Y,Y,Y,Y,Y,,,,,이천시,경기도
FC003807,어썸파티룸1호점,1.0,기타(비공연장),,50.0,00-1482-1201,,서울특별시 광진구 동일로22길 95 (화양동),37.5410819,127.0694473,N,N,N,N,N,N,N,N,N,N,,,,,광진구,서울특별시
FC001359,파주운정행복센터,2.0,공공(문예회관),2013.0,736.0,031-950-1911,https://www.paju.go.kr/uhc/,경기도 파주시 와석순환로 415,37.7133199,126.75234210000008,Y,Y,Y,N,Y,Y,Y,Y,Y,Y,,,,,파주시,경기도
FC003122,하땅세극장,1.0,민간(대학로),,50.0,00-1600-2238,https://blog.naver.com/haddangse2,서울특별시 성북구 성북로 5-7(성북동1가),37.5887016,127.0051567,N,N,N,N,N,N,N,N,N,N,,,,,성북구,서울특별시
FC000807,연세대학교 노천극장,1.0,민간(대학로 외),1933.0,10222.0,02-2123-3818,http://ycac.yonsei.ac.kr/,서울특별시 서대문구 연세로 50 (신촌동),37.565784,126.93857200000002,N,N,N,N,N,Y,Y,N,N,Y,,,,,서대문구,서울특별시
FC001375,떼아뜨르 다락 소극장,1.0,민간(대학로 외),2011.0,90.0,032-777-1959,http://cafe.daum.net/theatre-dalak,인천광역시 중구 신포로27번길 3 (중앙동4가),37.4714118,126.62473279999996,N,N,N,N,N,N,N,N,N,N,,,,,중구,인천광역시
FC002725,정약용도서관,1.0,기타(비공연장),2020.0,320.0,031-590-2586,https://lib.nyj.go.kr/jyy/index.do,경기도 남양주시 다산중앙로82번안길 138 (다산동),37.6121577,127.1673571,Y,Y,Y,N,Y,Y,Y,Y,Y,Y,,,,,남양주시,경기도
FC003870,물빛극장,1.0,민간(대학로),,60.0,,,서울특별시 종로구 대학로8가길 129 (동숭동),37.5803062,127.0035291,N,N,N,N,N,N,N,N,N,N,,,,,종로구,서울특별시
FC000212,예술나무씨어터(구. 상상나눔씨어터),1.0,민간(대학로 외),2013.0,232.0,02-1661-5054,https://cafe.naver.com/purifycompany,"서울특별시 구로구 구로중앙로 134 (구로동, 신구로자이나인스에비뉴)",37.5000786,126.8840596,N,N,N,N,N,Y,N,N,N,Y,,,,,구로구,서울특별시
FC001789,세종대학교 충무관,1.0,민간(대학로 외),1978.0,100.0,02-3408-3114,http://www.sejong.ac.kr/,서울특별시 광진구 능동로 209 (군자동),37.5522605,127.07396059999996,Y,Y,Y,N,N,Y,Y,Y,N,Y,,,,,광진구,서울특별시
FC002858,서울생활문화센터 서교,1.0,민간(대학로 외),2020.0,162.0,02-6351-7533,https://seogyocenter.or.kr/,서울특별시 마포구 양화로 72(서교동),37.5508022,126.9167159,N,N,N,N,N,N,N,N,N,Y,,,,,마포구,서울특별시
FC003952,오디너리 랩 스튜디오,1.0,민간(대학로 외),,0.0,,https://blog.naver.com/ordinary_lab_studio,서울특별시 서초구 사평대로 353 (반포동),37.5042494,127.0217889,N,N,N,N,N,N,N,N,N,N,,,,,서초구,서울특별시
FC000802,가톨릭청년회관,1.0,민간(대학로 외),2010.0,200.0,070-8668-5795,http://www.scyc.or.kr/v2/scyc.asp,서울특별시 마포구 월드컵북로2길 49 (동교동),37.5571714,126.92301759999998,N,N,N,N,N,N,N,N,N,Y,,,,,마포구,서울특별시
FC001249,더 씨어터,1.0,민간(대학로),2011.0,96.0,02-743-3382,http://cafe.daum.net/thetheatre,서울특별시 종로구 대학로3길 10 (효제동) 고운빌딩,37.5740036,127.00164489999996,N,N,N,N,N,N,N,N,N,N,,,,,종로구,서울특별시
FC003725,가회당,1.0,기타(비공연장),,51.0,,,경기도 수원시 팔달구 행궁로 33 (남창동),37.2795433,127.0150575,N,N,N,N,N,N,N,N,N,N,,,,,수원시,경기도
FC002794,콜링아트센터,1.0,기타(비공연장),,0.0,02-545-4083,https://callingartcenter.modoo.at/,서울특별시 관악구 관악로14길 110 (봉천동),37.4777141,126.9584144,N,N,N,N,N,N,N,N,N,Y,,,,,관악구,서울특별시
FC004225,아트코리아랩,4.0,공공(기타),,20.0,02-708-2222,,서울특별시 종로구 율곡로 6 (중학동),37.5754539,126.9797758,N,N,N,N,N,N,N,N,N,N,,,,,종로구,서울특별시
FC000612,포천반월아트홀,3.0,공공(문예회관),2003.0,1162.0,031-540-6213,https://www.pcfac.or.kr/,경기도 포천시 군내면 청성로 111,37.8958535,127.21221459999992,N,N,N,N,N,N,N,N,N,Y,,,,,포천시,경기도
FC004213,한국과학기술단체총연합회,1.0,기타(비공연장),,550.0,02-3420-1200,https://kofst.or.kr/intro.jsp,서울특별시 강남구 테헤란로7길 22 (역삼동),37.5007221,127.0307688,N,N,N,N,N,N,N,N,N,N,,,,,강남구,서울특별시
FC000016,성남아트센터,4.0,공공(문예회관),2005.0,5174.0,031-783-8000,http://www.snart.or.kr/,경기도 성남시 분당구 성남대로 808 (야탑동),37.4027309,127.13124349999998,Y,Y,N,Y,Y,Y,N,Y,N,Y,,,,,성남시,경기도
FC000453,봄날아트홀 (구. 아리랑소극장),2.0,민간(대학로),1996.0,370.0,070-8639-7883,,서울특별시 종로구 동숭길 39 (동숭동),37.5799517,127.00425100000008,Y,Y,N,N,N,N,N,N,N,N,,,,,종로구,서울특별시
FC004203,스페이스 씨 (코리아나미술관),1.0,기타(비공연장),,0.0,02-547-9177,http://www.spacec.co.kr/,서울특별시 강남구 언주로 827 (신사동),37.5240062,127.0326264,N,N,N,N,N,N,N,N,N,N,,,,,강남구,서울특별시
FC001262,성균소극장,1.0,민간(대학로),2006.0,180.0,02-747-5035,http://sktheater.modoo.at/,서울특별시 종로구 성균관로 12-3 (명륜2가),37.5845012,126.99909430000002,N,N,N,N,N,N,N,N,N,N,,,,,종로구,서울특별시
FC004193,갤러리99,2.0,기타(비공연장),,0.0,02-322-0199,https://www.gallery99.kr/,서울특별시 마포구 홍익로 5-1 (서교동),37.5531135,126.9236057,N,N,N,N,N,N,N,N,N,N,,,,,마포구,서울특별시
FC003017,금천뮤지컬센터,1.0,공공(기타),2021.0,197.0,02-2627-2183,https://www.instagram.com/gcmc.kr/,서울특별시 금천구 시흥대로115길 48(독산동),37.4687771,126.8944749,N,N,N,N,N,Y,N,Y,N,Y,,,,,금천구,서울특별시
FC000142,연천수레울아트홀,2.0,공공(문예회관),2010.0,716.0,031-834-3770,http://sureul.co.kr/company/arthall_intro.jsp,경기도 연천군 연천읍 문화로 150,38.1090534,127.07991620000008,N,N,N,N,N,Y,Y,N,Y,Y,,,,,연천군,경기도
FC004174,NC문화재단 홀,1.0,민간(대학로),,30.0,,,서울특별시 종로구 이화장길 100 (동숭동),37.5798042,127.0046166,N,N,N,N,N,N,N,N,N,N,,,,,종로구,서울특별시
FC001283,씨어터 송,1.0,민간(대학로 외),2012.0,100.0,070-8843-0088,http://www.theatresong.com/,서울특별시 서초구 법원로3길 22 (서초동),37.4931781,127.00825269999996,N,N,N,N,N,N,N,N,N,N,,,,,서초구,서울특별시
FC000749,"파랑씨어터 (구. 도향아트홀, 구. 뮤디스홀)",1.0,민간(대학로),2017.0,160.0,070-4870-1932,,서울특별시 종로구 대학로8가길 36 (동숭동),37.58250161309591,127.002454486033,Y,N,N,N,N,N,N,N,N,N,,,,,종로구,서울특별시
FC004171,카페 어스돔,1.0,기타(비공연장),,0.0,,,서울특별시 중구 퇴계로36가길 46 (필동2가),37.5582921,126.9954376,N,N,N,N,N,N,N,N,N,N,,,,,중구,서울특별시
FC000118,반석아트홀 (동탄복합문화센터),2.0,공공(문예회관),2011.0,1155.0,00-1588-5234,http://art.hcf.or.kr/subpage/index/254,경기도 화성시 노작로 134 (반송동),37.2006588,127.07391230000007,N,Y,N,N,N,Y,Y,N,Y,Y,,,,,화성시,경기도
FC001812,안성맞춤아트홀,4.0,공공(문예회관),2017.0,1294.0,031-660-0666,https://www.anseong.go.kr/arthall/main.do,경기도 안성시 발화대길 21 (현수동),37.0010012,127.2790334,N,Y,N,N,Y,Y,Y,Y,Y,Y,,,,,안성시,경기도
FC003032,청학아트홀,1.0,공공(기타),,222.0,,https://www.yeonsu.go.kr/culture/reservation/cheonghak/rental.asp,인천광역시 연수구 비류대로 299(청학동),37.4263057,126.6676686,N,N,N,N,N,N,N,N,N,Y,,,,,연수구,인천광역시
FC000003,국립극장,7.0,국립,1973.0,2432.0,02-2280-4114,http://www.ntok.go.kr,서울특별시 중구 장충단로 59 (장충동2가),37.5523153,126.999636,N,N,Y,N,N,N,Y,Y,Y,Y,,,,,중구,서울특별시
FC000070,호원아트홀,1.0,민간(대학로 외),2011.0,453.0,02-482-8794,http://blog.naver.com/enter_pf,서울특별시 강동구 성안로 30 (성내동),37.5262867,127.1303173,N,Y,N,N,N,N,N,N,N,Y,,,,,강동구,서울특별시
FC002632,아르코예술극장,5.0,국립,1981.0,855.0,02-3668-0007,https://theater.arko.or.kr/Home/ko/Main,서울특별시 종로구 대학로8길 7 (동숭동),37.5811855,127.0029999,N,N,N,Y,N,N,N,N,N,Y,,,,,종로구,서울특별시
FC001217,성남아트리움 (구. 성남시민회관),2.0,공공(문예회관),1981.0,863.0,031-735-1960,http://www.snart.or.kr/web/cms/?MENUMST_ID=21536,경기도 성남시 수정구 수정로171번길 10,37.4448723,127.13890700000002,Y,Y,Y,Y,Y,Y,Y,Y,Y,Y,,,,,성남시,경기도
FC001875,남양주 어린이비전센터,1.0,공공(기타),2015.0,200.0,031-560-1552,http://www.ncuc.or.kr/children/,경기도 남양주시 진접읍 해밀예당1로 96 (금곡리),37.7169754,127.19123460000004,N,N,N,Y,Y,Y,N,N,N,Y,,,,,남양주시,경기도
FC000389,대학로스타시티,6.0,민간(대학로),2007.0,654.0,02-894-0202,,서울특별시 종로구 대학로11길 23 (명륜4가),37.5820799726622,127.000480025926,N,Y,Y,N,N,N,N,N,N,N,,,,,종로구,서울특별시
FC000001,예술의전당 [서울],11.0,국립,1988.0,164344.0,02-580-1300,http://www.sac.or.kr,서울특별시 서초구 남부순환로 2406 (서초동),37.4786896,127.0118241,Y,Y,Y,Y,Y,Y,Y,Y,Y,Y,,,,,서초구,서울특별시
FC000005,국립극단 [명동],1.0,국립,2009.0,547.0,00-1644-2003,http://www.ntck.or.kr,서울특별시 중구 명동길 35 (명동1가),37.563999,126.9841738,N,Y,N,N,N,Y,Y,Y,Y,Y,,,,,중구,서울특별시
FC000419,씨어터조이 (구. 마당세실극장),1.0,민간(대학로),1997.0,100.0,02-747-5773,,서울특별시 종로구 이화장길 78 (동숭동),37.578643,127.00462949999996,N,N,N,N,N,N,N,N,N,N,,,,,종로구,서울특별시
FC003222,다락방극장(을지트윈타워),1.0,민간(대학로 외),,0.0,,,서울특별시 중구 을지로 170(을지로4가),37.5661392,126.9973275,N,N,N,N,N,N,N,N,N,N,,,,,중구,서울특별시
FC001848,오류아트홀,1.0,공공(기타),2018.0,365.0,02-2614-7969,https://www.guroartsvalley.or.kr/user/home.do,서울특별시 구로구 경인로20가길 38 (오류동),37.4958396,126.84563660000003,N,N,N,N,N,Y,Y,Y,Y,Y,,,,,구로구,서울특별시
FC001361,성북마을극장,1.0,민간(대학로),2015.0,68.0,010-3385-4155,http://sbtheater.modoo.at/,서울특별시 성북구 동소문로20다길 10 (동선동1가),37.5915775,127.0173297,N,N,N,N,N,N,N,N,N,N,,,,,성북구,서울특별시
FC001379,"아루또소극장 (구. 소담소극장, 구. 코메디컬센터)",1.0,민간(대학로),2017.0,97.0,02-6012-2511,,서울특별시 종로구 대학로8가길 48 (동숭동),37.5828996,127.00240359999998,N,N,N,N,N,N,N,N,N,N,,,,,종로구,서울특별시
FC000010,유니버설아트센터,1.0,민간(대학로 외),1981.0,1052.0,070-7124-1740,http://www.uac.co.kr/,서울특별시 광진구 천호대로 664 (능동),37.5505555,127.08826240000008,N,N,N,N,N,N,Y,N,Y,Y,,,,,광진구,서울특별시
FC002633,대학로예술극장,4.0,국립,2009.0,999.0,02-3668-0007,http://theater.arko.or.kr/Pages/Main.aspx,서울특별시 종로구 대학로10길 17 (동숭동),37.5820961,127.0031785,N,N,N,N,N,N,N,N,N,Y,,,,,종로구,서울특별시
FC000783,구로아트밸리,1.0,공공(문예회관),2008.0,1124.0,02-2029-1700,http://www.guroartsvalley.or.kr/,서울특별시 구로구 가마산로25길 9-24 (구로동),37.4965397,126.88896820000002,N,Y,N,N,Y,Y,Y,N,Y,N,,,,,구로구,서울특별시
FC000248,삼일로창고극장,1.0,민간(대학로 외),1975.0,60.0,02-3789-9640,http://samilro.com,서울특별시 중구 삼일대로9길 12 (저동1가),37.5633965,126.98788530000002,N,N,N,N,N,N,N,N,N,N,,,,,중구,서울특별시
FC002745,피움스튜디오,1.0,민간(대학로 외),2018.0,40.0,010-2642-0435,https://blog.naver.com/pewuda,서울특별시 영등포구 영등포로34길 3 (영등포동4가),37.519954,126.9024339,Y,N,Y,N,N,N,N,N,N,N,,,,,영등포구,서울특별시
FC003199,썸컴퍼니앤 광태소극장,1.0,민간(대학로 외),,80.0,010-5879-0317,http://www.somcompany.com/gwangtae/?menu=playon&post=36,서울특별시 관악구 호암로22길 51(신림동),37.4687863,126.9356302,N,N,N,N,N,N,N,N,N,N,,,,,관악구,서울특별시
FC003203,연세대학교 무악극장,1.0,민간(대학로 외),,0.0,02-2123-5115,,서울특별시 서대문구 연세로 50 (신촌동),37.5660508,126.9439162,N,N,N,N,N,N,N,N,N,N,,,,,서대문구,서울특별시
FC001796,부평문화사랑방,1.0,공공(기타),2003.0,126.0,032-505-5995,https://www.bpcf.or.kr/facility/culturelove/introduce.asp,인천광역시 부평구 주부토로 173 (갈산동),37.510697,126.7256982,N,N,N,N,N,Y,Y,N,N,Y,,,,,부평구,인천광역시
FC001854,신촌문화발전소,1.0,공공(기타),2018.0,50.0,02-330-4393,https://www.scas.or.kr/,서울특별시 서대문구 연세로2나길 57 (창천동),37.5578945,126.93978519999996,N,Y,N,N,N,Y,N,N,Y,Y,,,,,서대문구,서울특별시
FC000219,인천수봉문화회관,2.0,공공(문예회관),1982.0,160.0,032-873-5174,http://artin.or.kr/artin_new.htm,인천광역시 남구 수봉안길 78 (숭의동),37.4615074,126.66226830000004,N,N,N,N,N,Y,Y,Y,N,Y,,,,,남구,인천광역시
FC001208,홍익대 대학로 아트센터,2.0,민간(대학로),2013.0,852.0,02-742-0300,http://www.hongikartcenter.com/main.do,서울특별시 종로구 대학로 57 (연건동),37.5769696,127.00203310000006,N,Y,Y,N,N,Y,Y,N,Y,Y,,,,,종로구,서울특별시
FC000600,문학시어터,1.0,공공(기타),2010.0,111.0,032-433-3777,http://www.mhtheater.kr,인천광역시 남구 매소홀로 618 (문학동),37.4374104,126.69273420000002,N,N,N,N,N,Y,Y,N,N,Y,,,,,남구,인천광역시
FC000110,광주시문화예술의전당 (구. 남한산성아트홀),2.0,공공(문예회관),2011.0,1308.0,031-760-4466,https://www.nsart.or.kr,경기도 광주시 회안대로 891 (송정동),37.4270408,127.25507500000003,Y,Y,Y,N,N,Y,Y,Y,Y,Y,,,,,광주시,경기도
FC000180,나온씨어터,1.0,민간(대학로),2008.0,105.0,02-3675-3677,http://naontheater20.modoo.at,서울특별시 종로구 혜화로9길 7 (명륜1가),37.5876677,126.99939259999996,N,N,N,N,N,N,N,N,N,N,,,,,종로구,서울특별시
FC003191,청담 예인아트홀,1.0,민간(대학로 외),,90.0,,,서울특별시 강남구 도산대로81길 45(청담동),37.5270366,127.0461887,N,N,N,N,N,N,N,N,N,N,,,,,강남구,서울특별시
FC000402,두산아트센터,3.0,민간(대학로 외),2007.0,920.0,02-708-5001,http://www.doosanartcenter.com/,서울특별시 종로구 종로33길 15 (연지동),37.571729,127.00118929999996,N,N,N,N,N,N,N,N,N,Y,,,,,종로구,서울특별시
FC003050,종로여가,1.0,기타(비공연장),,0.0,,https://blog.naver.com/local_concierge_cafe,서울특별시 종로구 창신길 55(창신동),37.5741515,127.010447,N,N,N,N,N,N,N,N,N,N,,,,,종로구,서울특별시
FC001384,SH아트홀,1.0,민간(대학로),2011.0,260.0,02-747-2265,https://www.facebook.com/sharthall/,서울특별시 종로구 동숭길 25 (동숭동),37.5798541,127.0035752,N,Y,N,N,N,N,N,N,N,N,,,,,종로구,서울특별시
FC002032,폼텍웍스홀,1.0,민간(대학로 외),2014.0,100.0,02-323-3644,http://www.workshall.co.kr/,서울특별시 마포구 잔다리로3길 34 (서교동),37.5506968,126.9178776,N,N,N,N,N,N,N,N,N,N,,,,,마포구,서울특별시
FC003158,제이엘 씨어터,1.0,민간(대학로 외),,130.0,070-4887-1267,https://blog.naver.com/elent0801,서울특별시 마포구 어울마당로 94-8(서교동),37.5531403,126.9222208,N,N,N,N,N,N,N,N,N,N,,,,,마포구,서울특별시
FC000095,하남문화예술회관,3.0,공공(문예회관),2007.0,1291.0,031-790-7979,http://www.hnart.or.kr:8080/content.do?id=29&menu=8&code=1,경기도 하남시 신평로 125 (덕풍동),37.544736,127.20683669999994,N,N,N,N,N,Y,Y,Y,N,Y,,,,,하남시,경기도
FC001423,성북구민회관,1.0,공공(기타),1990.0,750.0,02-924-6781,https://www.sbculture.or.kr/culture/main/contents.do?menuNo=500219,서울특별시 성북구 성북로4길 177 - 0 성북구민회관,37.589116,127.01821459999996,N,N,N,N,N,N,N,N,N,Y,,,,,성북구,서울특별시
FC003196,극단 예터,1.0,민간(대학로 외),,0.0,,,경기도 부천시 부일로 547-1(소사동),37.4848448,126.7911093,N,N,N,N,N,N,N,N,N,N,,,,,부천시,경기도
FC000736,올래홀,1.0,민간(대학로),2005.0,172.0,00-1566-5588,,서울특별시 종로구 대학로10길 24 (동숭동),37.5815685,127.00353990000008,N,N,N,N,N,N,N,N,N,N,,,,,종로구,서울특별시
FC002777,후암스테이지,2.0,민간(대학로),2003.0,230.0,,https://m.cafe.daum.net/mimania,서울특별시 종로구 대학로11길 23 (명륜4가),37.5820588,127.0004181,N,N,N,N,N,N,N,N,N,N,,,,,종로구,서울특별시
FC001173,성수아트홀(성수문화복지회관),1.0,공공(문예회관),2012.0,352.0,02-2204-7571,https://www.sdfac.or.kr/kor/sdfac/sub/contents.do?gotoMenuNo=08020500,서울특별시 성동구 뚝섬로1길 43 (성수동1가),37.5443376,127.04692750000004,N,Y,N,N,Y,Y,Y,N,N,Y,,,,,성동구,서울특별시
FC000122,부천시민회관,4.0,공공(문예회관),1988.0,1255.0,032-320-6300,http://www.bcf.or.kr/,경기도 부천시 원미구 부일로 365 (중동),37.4886325,126.7706582,N,N,N,N,N,Y,Y,Y,N,Y,,,,,부천시,경기도
FC003244,링크아트센터,2.0,민간(대학로),2022.0,860.0,,,서울특별시 종로구 대학로14길 29(혜화동),37.5846899,127.0022947,N,N,N,N,N,N,N,N,N,N,,,,,종로구,서울특별시
FC001438,수원SK아트리움,2.0,공공(문예회관),2014.0,1250.0,031-250-5300,http://www.suwonskartrium.or.kr/,경기도 수원시 장안구 이목로 24-25 (정자동),37.3096379,126.98655699999996,N,Y,N,N,N,Y,Y,N,Y,Y,,,,,수원시,경기도
FC002685,KOTE(코트),1.0,민간(대학로 외),,0.0,02-2138-8351,https://www.kote.kr/Rent_kote_live,서울특별시 종로구 인사동길 7 (인사동),37.5715579,126.9868358,N,N,N,N,N,N,N,N,N,N,,,,,종로구,서울특별시
FC002061,우리소극장 [의정부],1.0,민간(대학로 외),2020.0,50.0,010-3954-5899,https://woorihall.modoo.at/,경기도 의정부시 용민로 483 (민락동),37.7507781,127.1181088,N,Y,Y,N,N,Y,Y,N,N,Y,,,,,의정부시,경기도
FC001435,종로아이들극장,1.0,공공(기타),2016.0,281.0,02-2088-4290,https://jct.jfac.or.kr/site/child/home,서울특별시 종로구 성균관로 91 - 0 국민생활관,37.590434,126.9987747,N,N,N,N,Y,Y,N,N,N,Y,,,,,종로구,서울특별시
FC000934,평택시남부문예회관,2.0,공공(문예회관),1993.0,862.0,031-8024-5411,http://www.pyeongtaek.go.kr/pyeongtaek/contents.do?mId=0601060300,경기도 평택시 중앙로 277 (비전동),36.9909219,127.11427630000004,N,N,N,N,N,Y,Y,N,N,Y,,,,,평택시,경기도
FC003237,노무현시민센터,1.0,민간(대학로 외),,128.0,,https://www.knowhow.or.kr/center/main.php,서울특별시 종로구 창덕궁길 73(원서동),37.5809051,126.9888483,N,N,N,N,N,N,N,N,N,Y,,,,,종로구,서울특별시
FC003053,주말극장,1.0,민간(대학로 외),,0.0,010-8833-2852,https://blog.naver.com/NBlogTop.naver?isHttpsRedirect=true&blogId=lsstudio,서울특별시 영등포구 도림로126길 1(문래동3가),37.5139792,126.8965073,N,N,N,N,N,N,N,N,N,N,,,,,영등포구,서울특별시
FC001425,스튜디오 QDA(구. 춤공장),1.0,민간(대학로 외),2013.0,20.0,010-6228-5952,http://blog.daum.net/ironworksplay,서울특별시 영등포구 도림로126길 1 (문래동3가),37.5176033,126.89528900000003,N,N,N,N,N,N,N,N,N,N,,,,,영등포구,서울특별시
FC003098,연극플레이스 혜화,1.0,민간(대학로),,162.0,,,서울특별시 종로구 대학로8가길 111(동숭동),37.5809723,127.003528,N,N,N,N,N,N,N,N,N,N,,,,,종로구,서울특별시
FC000325,인천학생교육문화회관,2.0,공공(기타),2004.0,808.0,032-760-3400,http://www.iecs.go.kr/,인천광역시 중구 자유공원로 12 (인현동),37.4757169,126.6296972,N,Y,N,Y,Y,Y,N,N,N,Y,,,,,중구,인천광역시
FC002122,노들섬,5.0,공공(기타),,1072.0,02-6365-1008,http://nodeul.org/,서울특별시 용산구 양녕로 445 (이촌동),37.5170464,126.9602196,Y,Y,Y,N,N,N,N,N,N,N,,,,,용산구,서울특별시
FC001386,문래예술공장,2.0,공공(기타),2010.0,180.0,02-2676-4300,https://www.sfac.or.kr/artspace/artspace/mullae_main.do,서울특별시 영등포구 경인로88길 5-4 (문래동1가) 문래예술공장,37.5130462,126.9001786,N,Y,N,N,N,Y,N,Y,N,Y,,,,,영등포구,서울특별시
FC002271,광화문광장,3.0,기타(비공연장),,0.0,02-2133-7732,https://gwanghwamun.seoul.go.kr/,서울특별시 종로구 세종대로 지하 172 (세종로),37.5724335,126.9769029,N,N,N,N,N,N,N,N,N,N,,,,,종로구,서울특별시
FC001550,소극장 극예술공간,1.0,민간(대학로 외),2016.0,50.0,032-655-8815,http://blog.naver.com/yaegitheatre,경기도 부천시 부천로66,37.4903407,126.78387429999998,N,N,N,N,N,N,N,N,N,N,,,,,부천시,경기도
FC002478,뉴코아소극장 [부천],1.0,민간(대학로 외),2007.0,160.0,032-624-8120,https://nc123.modoo.at/,경기도 부천시 송내대로 239 (상동),37.5041199,126.7566315,Y,Y,N,N,N,Y,Y,N,Y,Y,,,,,부천시,경기도
FC001931,다산아트홀,1.0,공공(문예회관),2018.0,496.0,031-590-4358,https://culture.nyj.go.kr/home/1,경기도 남양주시 다산중앙로 7 (다산동),37.6140062,127.1553452,N,Y,N,N,N,Y,N,N,N,Y,,,,,남양주시,경기도
FC001240,굿씨어터,1.0,민간(대학로),2004.0,320.0,00-1800-7382,,서울특별시 종로구 대학로 144 (혜화동),37.586755,127.0003554,N,N,N,N,N,Y,N,N,N,Y,,,,,종로구,서울특별시
FC002017,김포한강괜찮은홀,1.0,민간(대학로 외),,110.0,070-8886-2516,,경기도 김포시 양촌읍 석모로 103 (석모리),37.651561,126.6394602,N,N,N,N,N,N,N,N,N,Y,,,,,김포시,경기도
FC001528,링크아트센터드림,4.0,민간(대학로),2016.0,979.0,02-3481-8843,http://blog.naver.com/dreamartcenter,서울특별시 종로구 동숭길 123 (동숭동),37.5820171,127.00353629999996,N,Y,N,N,N,N,N,N,N,N,,,,,종로구,서울특별시
FC001431,해바라기소극장 (구. 훈아트홀),1.0,민간(대학로),2013.0,61.0,02-747-7331,,서울특별시 종로구 동숭길 76 (동숭동),37.5815998,127.00425730000006,N,N,N,N,N,N,N,N,N,N,,,,,종로구,서울특별시
FC001404,대학로 이음센터(한국장애인문화예술원),2.0,공공(기타),2015.0,120.0,02-760-9700,http://www.i-eum.or.kr/contents/view?contentsNo=6&level=1&menuNo=5,서울특별시 종로구 대학로 112 (동숭동),37.5811397,127.00238289999992,N,Y,N,N,N,N,Y,Y,Y,N,,,,,종로구,서울특별시
FC000009,국립국악원,5.0,국립,1951.0,2449.0,02-580-3300,http://www.gugak.go.kr,서울특별시 서초구 남부순환로 2364 (서초동) 국립국악원,37.4786094,127.01130690000002,Y,Y,N,N,N,Y,Y,Y,Y,Y,,,,,서초구,서울특별시
FC002074,진접읍주민자치센터,1.0,공공(기타),,400.0,031-571-6231,https://cafe.naver.com/jinjeop,경기도 남양주시 진접읍 금강로 1509-23 (장현리),37.7263581,127.1898912,N,N,N,N,N,Y,N,Y,N,Y,,,,,남양주시,경기도
FC001424,놀터예술공방,1.0,민간(대학로),2014.0,48.0,070-4790-6051,,서울특별시 성북구 성북로2길 21 - 0 태고종선부암,37.589462,127.00701389999996,N,N,N,N,N,N,N,N,N,N,,,,,성북구,서울특별시
FC002246,푸르지오아트홀,1.0,민간(대학로 외),2019.0,280.0,02-2288-2864,http://prugioarthall.daewooenc.com/,서울특별시 중구 을지로 170 (을지로4가),37.5661792,126.9973242,Y,Y,N,N,N,N,Y,Y,Y,Y,,,,,중구,서울특별시
FC002584,현대백화점 문화홀 [천호],1.0,민간(대학로 외),,420.0,02-2225-7557,http://www.ehyundai.com/newCulture/CW/CW000001_V.do,서울특별시 강동구 천호대로 1005 (천호동),37.539026,127.1244588,Y,Y,Y,Y,Y,Y,Y,N,Y,Y,,,,,강동구,서울특별시
FC001543,공간 222,1.0,민간(대학로 외),2016.0,33.0,010-5584-8875,,서울특별시 성북구 동소문로 24 (동소문동2가),37.5893416,127.00876829999991,N,N,N,N,N,N,N,N,N,N,,,,,성북구,서울특별시
FC001539,큐씨어터(구. 수상한흥신소전용관),1.0,민간(대학로),2016.0,250.0,070-4162-8320,http://cms6.cku.ac.kr/user/indexSub.do?codyMenuSeq=1908&siteId=media,서울특별시 종로구 대학로8가길 79 (동숭동),37.5824389,127.00354530000004,N,N,Y,N,N,N,N,N,N,N,,,,,종로구,서울특별시
FC000019,의정부예술의전당,2.0,공공(문예회관),2001.0,1258.0,031-828-5841,https://www.uac.or.kr/,경기도 의정부시 의정로 1 (의정부동),37.7334125,127.03436779999991,N,Y,N,Y,N,Y,N,Y,Y,Y,,,,,의정부시,경기도
FC002460,가정생활문화센터 (구.가정청소년문화의집),1.0,공공(기타),2021.0,70.0,032-580-1190,https://iscf.kr/_new/html/centerIntro/homeCenter.php,인천광역시 서구 서달로 190 (가정동),37.5156783,126.6797406,N,N,N,N,N,N,Y,Y,Y,Y,,,,,서구,인천광역시
FC001877,NOL 서경스퀘어(구. 서경대학교 공연예술센터),2.0,민간(대학로),2018.0,704.0,02-940-7114,https://www.skuniv.ac.kr/main,서울특별시 종로구 동숭길 148 (혜화동),37.5820171,127.00353629999996,Y,Y,N,N,N,Y,N,N,N,Y,,,,,종로구,서울특별시
FC001873,아트센터 인천,2.0,공공(문예회관),2018.0,3796.0,032-453-7700,http://www.aci.or.kr/,인천광역시 연수구 아트센터대로 222 (송도동),37.3934841,126.6309586,N,N,N,Y,Y,Y,Y,N,Y,Y,,,,,연수구,인천광역시
FC003249,한예극장,2.0,민간(대학로),,671.0,02-3665-6268,https://hanye.modoo.at/,서울특별시 종로구 이화장길 66(동숭동),37.5782086,127.0047187,N,N,N,N,N,N,N,N,N,N,,,,,종로구,서울특별시
FC002099,화도수동행정복지센터,1.0,공공(기타),2016.0,342.0,031-590-5498,https://www.nyj.go.kr/town/355,경기도 남양주시 화도읍 비룡로 59 (마석우리),37.6577326,127.300796,N,N,N,N,N,Y,Y,Y,N,Y,,,,,남양주시,경기도
FC003224,아트하우스,1.0,민간(대학로),,212.0,,,서울특별시 종로구 대학로10길 26(동숭동),37.5816067,127.0037204,N,N,N,N,N,N,N,N,N,N,,,,,종로구,서울특별시
FC001532,민들레연극마을,3.0,민간(대학로 외),2007.0,300.0,031-358-7587,http://www.mdl.or.kr/home/,경기도 화성시 우정읍 이화뱅곳길 22,37.0378517,126.79807219999998,N,N,N,N,N,N,N,N,N,N,,,,,화성시,경기도
FC003220,공간 만차,1.0,민간(대학로 외),,0.0,,,서울특별시 용산구 이태원로54길 5(한남동),37.538051,127.0019369,N,N,N,N,N,N,N,N,N,N,,,,,용산구,서울특별시
FC002410,성북정보도서관,1.0,공공(기타),,80.0,02-962-1081,https://www.sblib.seoul.kr/sblib/,서울특별시 성북구 화랑로18자길 13 (상월곡동),37.6050047,127.0507443,Y,Y,Y,N,Y,Y,Y,Y,Y,Y,,,,,성북구,서울특별시
FC002081,용인어린이상상의숲,3.0,공공(기타),2019.0,210.0,031-323-6500,http://www.yicf.or.kr/lib/mainPage.do,경기도 용인시 처인구 동백죽전대로 61 (삼가동),37.2503893,127.1655069,N,Y,N,Y,Y,Y,N,N,N,Y,,,,,용인시,경기도
FC001529,여행자극장,1.0,민간(대학로),2016.0,100.0,070-7918-9077,https://yohangzatheatre.modoo.at/,서울특별시 성북구 성북로5길 9-3 (성북동1가),37.5889086,127.00463660000004,N,N,N,N,N,N,N,N,N,N,,,,,성북구,서울특별시
FC001428,한국콘텐츠진흥원 CKL스테이지,1.0,공공(기타),2015.0,190.0,02-6441-3951,https://venture.ckl.or.kr/stage/main.do,서울특별시 중구 청계천로 40,37.5684894,126.9816134,N,Y,N,N,N,Y,N,N,N,Y,,,,,중구,서울특별시
FC002072,업스테이지 (UP Stage),1.0,민간(대학로),,153.0,070-4792-8342,https://www.spacecloud.kr/space/30147,서울특별시 종로구 동숭길 41 (동숭동),37.5801085,127.0042703,N,N,N,N,N,N,N,N,N,N,,,,,종로구,서울특별시
FC001380,옵신 스페이스(구. 서촌공간 서로),1.0,민간(대학로 외),2016.0,70.0,02-730-2502,http://spaceseoro.com/main/index.html,서울특별시 종로구 필운대로7길 12 (옥인동),37.5815528,126.967847,N,Y,N,N,N,N,N,N,N,N,,,,,종로구,서울특별시
FC000895,수원시민회관,1.0,공공(문예회관),1962.0,376.0,031-244-2161,http://citizen.suwonsarang.com/mp01_default/index.php,경기도 수원시 팔달구 팔달산로 28,37.273443,127.0112226,N,N,N,N,N,N,N,N,N,Y,,,,,수원시,경기도
FC002181,소극장 울림터 (극단 메카네),1.0,민간(대학로 외),2017.0,80.0,031-243-5147,https://cafe.naver.com/machanetheater2013,경기도 수원시 팔달구 정조로 767-4 (팔달로3가) 지환빌딩 4층,37.2766728,127.016397,N,N,N,N,N,N,N,N,N,N,,,,,수원시,경기도
FC000145,오산문화예술회관,2.0,공공(문예회관),2004.0,1007.0,031-379-9900,https://www.osan.go.kr/arts/main.do,경기도 오산시 경기동로 41 (오산동),37.1597009,127.07653890000006,N,N,N,N,N,Y,N,N,N,Y,,,,,오산시,경기도
FC001198,통진두레문화센터,1.0,공공(기타),2008.0,217.0,031-983-3460,https://www.gcf.or.kr/main/?mc_code=1413,경기도 김포시 통진읍 김포대로 2347-8,37.6953025,126.58772069999998,N,N,N,N,N,Y,Y,N,Y,Y,,,,,김포시,경기도
FC001620,보림인형극장,1.0,민간(대학로 외),2010.0,200.0,031-955-3456,http://www.borimtheater.com/home/index.php,경기도 파주시 광인사길 88 (문발동) 보림출판사,37.7115282,126.68613329999994,N,Y,N,N,N,Y,N,N,N,Y,,,,,파주시,경기도
FC000071,광명시민회관,3.0,공공(문예회관),1990.0,822.0,02-2621-8800,www.gmcf.or.kr,경기도 광명시 시청로 20 (철산동),37.4770159,126.86367769999993,N,Y,N,N,Y,Y,Y,Y,Y,Y,,,,,광명시,경기도
FC003274,스타스테이지,1.0,민간(대학로),2022.0,182.0,010-3239-0523,,서울특별시 종로구 대학로12길 15(동숭동),37.5827347,127.002845,N,N,N,N,N,N,N,N,N,N,,,,,종로구,서울특별시
FC001618,김포아트홀,1.0,공공(문예회관),2015.0,503.0,031-996-1603,https://www.gcf.or.kr/main/?mc_code=1411,경기도 김포시 돌문로 26 (사우동),37.6189366,126.72017299999992,N,N,N,N,N,Y,Y,N,Y,Y,,,,,김포시,경기도
FC003695,퓨플스튜디오,1.0,민간(대학로 외),,80.0,,,서울특별시 금천구 디지털로9길 56 (가산동),37.4804026,126.8868723,N,N,N,N,N,N,N,N,N,Y,,,,,금천구,서울특별시
FC002204,의정부아트캠프,1.0,공공(기타),2017.0,80.0,031-850-5130,https://www.uac.or.kr/artcamp/,경기도 의정부시 평화로493번길 48 (의정부동),38.0145458,127.0692182,N,N,N,N,N,N,N,N,N,N,,,,,의정부시,경기도
FC000613,유앤아이센터,1.0,공공(문예회관),2008.0,684.0,031-8015-8153,http://www.hswf.or.kr/unicenter/,경기도 화성시 태안로 145 (병점동),37.2031308,127.03323210000008,Y,Y,N,N,Y,Y,N,N,N,Y,,,,,화성시,경기도
FC002781,후암스튜디오(후암아트홀),1.0,민간(대학로),,170.0,,,서울특별시 종로구 대학로11길 23 (명륜4가),37.5820588,127.0004181,N,N,N,N,N,N,N,N,N,N,,,,,종로구,서울특별시
FC001631,창작플랫폼 경험과 상상,1.0,민간(대학로 외),2017.0,50.0,02-6949-2016,https://enitheater.modoo.at/?link=9chvvc5t,"서울특별시 영등포구 선유동2로 56 (당산동5가, 유원제일2차아파트)",37.532918,126.8988554,N,N,N,N,N,N,N,N,N,N,,,,,영등포구,서울특별시
FC001888,대교 트라움벨트,1.0,민간(대학로 외),2017.0,400.0,031-940-3940,http://traumwelt.daekyo.com/,경기도 파주시 회동길 342 (서패동),37.7097751,126.68774170000006,N,Y,N,Y,N,Y,N,N,N,Y,,,,,파주시,경기도
FC001600,효천아트센터 그라운드씬,1.0,민간(대학로),2010.0,200.0,02-3676-2352,,서울특별시 종로구 성균관로 87 (명륜1가),37.5899206,126.9982675,N,N,N,N,N,N,N,N,N,N,,,,,종로구,서울특별시
FC003373,스카이아트홀,1.0,민간(대학로 외),2022.0,987.0,02-2657-9757,https://skyarthall.modoo.at,서울특별시 강서구 화곡로63길 65(등촌동),37.5579738,126.8491891,N,N,N,N,N,N,N,N,N,N,,,,,강서구,서울특별시
FC002320,경기대학교 [서울],1.0,민간(대학로 외),2012.0,100.0,02-390-5114,http://www.kyonggi.ac.kr/webService.kgu?menuCode=K00M00020301,서울특별시 서대문구 경기대로9길 24 (충정로2가),37.5653263,126.9624034,Y,Y,Y,N,N,Y,N,N,N,Y,,,,,서대문구,서울특별시
FC003468,홍해성 소극장,1.0,민간(대학로),,40.0,,,서울특별시 종로구 동숭길 64 (동숭동),37.5811149,127.004334,N,N,N,N,N,N,N,N,N,N,,,,,종로구,서울특별시
FC003396,오마이갓 전용관,1.0,민간(대학로),2023.0,78.0,,,서울특별시 종로구 동숭길 68 (동숭동),37.5813131,127.0043055,N,N,N,N,N,N,N,N,N,N,,,,,종로구,서울특별시
FC003403,신림중앙시장,1.0,기타(비공연장),,0.0,02-865-7577,,서울특별시 관악구 조원로16길 27 (신림동),37.4831452,126.9114212,N,N,N,N,N,N,N,N,N,N,,,,,관악구,서울특별시
FC003384,해봄연습실,1.0,민간(대학로 외),,0.0,,,서울특별시 관악구 관천로 58(신림동),37.4845757,126.9260978,N,N,N,N,N,N,N,N,N,N,,,,,관악구,서울특별시
FC003374,도토리씨어터,2.0,민간(대학로),,232.0,,,서울특별시 종로구 대학로12길 63(동숭동),37.5812241,127.0040212,N,N,N,N,N,N,N,N,N,N,,,,,종로구,서울특별시
FC001215,소극장 창덕궁,1.0,민간(대학로 외),2008.0,150.0,02-742-7278,http://www.changgeuk.com/,서울특별시 종로구 창경궁로 227(명륜4가),37.5824263,126.9977518,N,N,N,N,N,N,N,N,N,N,,,,,종로구,서울특별시
FC002343,뚝섬플레이스,1.0,기타(비공연장),,0.0,02-766-1774,,서울특별시 성동구 성덕정길 25-56 (성수동1가),37.5396014,127.0465361,N,Y,N,N,N,N,N,N,N,N,,,,,성동구,서울특별시
FC003306,경기아트센터 경기국악원,1.0,민간(대학로 외),2004.0,420.0,031-289-6400,,경기도 용인시 기흥구 민속촌로 89(보라동),37.2594001,127.1136197,N,N,N,Y,N,Y,N,N,N,Y,,,,,용인시,경기도
FC003539,문화공간너나들이,1.0,민간(대학로 외),,50.0,010-5235-5505,,서울특별시 마포구 만리재로 123 (공덕동),37.5509016,126.9612357,N,N,N,N,N,N,N,N,N,N,,,,,마포구,서울특별시
FC003537,소극장 선물 2관,1.0,민간(대학로),,0.0,,,서울특별시 종로구 대학로 116 (동숭동),37.5815327,127.0023365,N,N,N,N,N,N,N,N,N,N,,,,,종로구,서울특별시
FC003502,롯데월드,2.0,기타(비공연장),,0.0,,,서울특별시 송파구 올림픽로 240 (잠실동),37.5113096,127.0981418,N,N,N,N,N,N,N,N,N,N,,,,,송파구,서울특별시
FC001636,창조소극장 (구. 민아트홀),1.0,민간(대학로),2018.0,95.0,02-3667-0170,https://changjotheater.modoo.at/,서울특별시 종로구 창경궁로 259 (명륜2가),37.5845149,127.0000258,N,N,N,N,N,N,N,N,N,N,,,,,종로구,서울특별시
FC003609,모두예술극장,2.0,공공(기타),2023.0,259.0,02-760-9769,https://www.moduarttheater.or.kr/home/ko/main,서울특별시 서대문구 충정로 7 (충정로3가),37.5601124,126.9622821,N,N,N,N,N,N,Y,Y,N,N,,,,,서대문구,서울특별시
FC001994,더 줌 아트센터,1.0,민간(대학로 외),2013.0,128.0,02-790-6792,http://thezoom.kr/index.php,서울특별시 용산구 독서당로 111 (한남동),37.5369721,127.0094906,N,N,N,N,N,N,N,N,N,N,,,,,용산구,서울특별시
FC001472,CTS아트홀,1.0,민간(대학로 외),2005.0,404.0,02-6333-1071,http://rent.ctsart.co.kr/,서울특별시 동작구 노량진로 100 (노량진동),37.5129255,126.93698640000002,N,N,N,N,N,Y,Y,N,N,Y,,,,,동작구,서울특별시
FC001619,강남씨어터,1.0,공공(기타),2007.0,232.0,02-6712-0531,https://gangnam.go.kr/office/gfac/contents/gfac_place02/1/view.do?mid=gfac_place02,서울특별시 강남구 역삼로7길 16 (역삼동),37.495188,127.03321630000003,N,N,N,N,N,Y,Y,Y,Y,Y,,,,,강남구,서울특별시
FC002016,우란2경,2.0,민간(대학로 외),2014.0,160.0,02-465-1418,http://www.wooranfdn.org/about/space.jsp,서울특별시 성동구 연무장7길 11 (성수동2가),37.5438039,127.0544279,N,N,N,N,N,N,N,N,N,Y,,,,,성동구,서울특별시
FC003405,강서아트리움,1.0,공공(문예회관),,215.0,02-2607-4985,,서울특별시 강서구 가로공원로 195 (화곡동),37.5375431,126.8376421,N,N,N,N,N,N,N,N,N,N,,,,,강서구,서울특별시
FC003364,송파어린이문화회관,1.0,공공(기타),2010.0,154.0,02-449-0505,http://www.songpakids.com/,서울특별시 송파구 중대로 235(오금동),37.5027425,127.1284004,N,N,N,N,N,N,N,N,N,Y,,,,,송파구,서울특별시
FC003526,터 씨어터,1.0,민간(대학로 외),,214.0,070-4190-7766,,경기도 고양시 일산동구 정발산로 127 (마두동),37.6595009,126.7822349,N,N,N,N,N,N,N,N,N,N,,,,,고양시,경기도
FC003631,인터미션,1.0,민간(대학로 외),,0.0,,,경기도 수원시 권선구 경수대로 371 (권선동),37.2597035,127.0232864,N,N,N,N,N,N,N,N,N,N,,,,,수원시,경기도
FC002219,블라인드아트홀,1.0,민간(대학로 외),2019.0,70.0,070-8254-2182,http://blindarthall.com/,서울특별시 광진구 아차산로 331-1 (자양동),37.5376806,127.0799086,N,N,N,N,N,N,N,N,N,N,,,,,광진구,서울특별시
FC003659,몸소리말조아라 센터,1.0,민간(대학로 외),,0.0,,,서울특별시 마포구 토정로15길 10-8 (신수동),37.5453809,126.9353895,N,N,N,N,N,N,N,N,N,N,,,,,마포구,서울특별시
FC000139,JTN 아트홀(구. 대학로예술마당),4.0,민간(대학로),2016.0,854.0,02-779-1595,http://www.jtnarthall.com/,서울특별시 종로구 이화장길 26 (이화동),37.5767066,127.00376210000002,N,Y,N,N,N,N,Y,N,N,N,,,,,종로구,서울특별시
FC001156,지즐소극장,1.0,민간(대학로),2007.0,84.0,010-8596-6296,https://www.facebook.com/pages/%EC%A7%80%EC%A6%90%EC%86%8C%EA%B7%B9%EC%9E%A5/468578863227778,서울특별시 종로구 성균관로4길 42 (명륜2가),37.5847101,126.9996688,Y,N,N,N,N,N,N,N,N,N,,,,,종로구,서울특별시
FC001572,한국소리터,2.0,공공(기타),2011.0,857.0,031-683-3891,http://soriter.or.kr/soriter/index.php,경기도 평택시 현덕면 평택호길 147,36.9220198,126.92183610000006,N,Y,N,N,N,Y,Y,N,Y,Y,,,,,평택시,경기도
FC000100,모차르트홀,1.0,민간(대학로 외),2004.0,201.0,02-3472-8222,http://www.mozarthall.co.kr/,서울특별시 서초구 명달로 104 (서초동),37.4855919,127.00420350000002,Y,N,N,N,N,N,N,N,N,Y,,,,,서초구,서울특별시
FC001303,해피씨어터,1.0,민간(대학로),2008.0,200.0,02-747-2070,,서울특별시 종로구 대학로10길 5 (동숭동),37.5818197,127.00255949999996,N,N,N,N,N,N,N,N,N,N,,,,,종로구,서울특별시
FC001826,현대카드 언더스테이지,2.0,민간(대학로 외),2015.0,205.0,02-331-6301,https://dive.hyundaicard.com/web/understage/spaceMain.hdc,서울특별시 용산구 이태원로 246 (한남동),37.5365851,127.00066620000008,N,Y,N,N,N,Y,N,N,N,Y,,,,,용산구,서울특별시
FC002782,후암씨어터(콘텐츠룸),1.0,민간(대학로),,100.0,,,서울특별시 종로구 대학로11길 23 (명륜4가),37.5820588,127.0004181,N,N,N,N,N,N,N,N,N,N,,,,,종로구,서울특별시
FC003634,종로노인종합복지관 종로마루홀,1.0,공공(기타),,0.0,02-742-9500,https://www.jongnonoin.or.kr/index.php,서울특별시 종로구 율곡로19길 17-8 (이화동),37.5766679,127.0060206,N,N,N,N,N,N,N,N,N,N,,,,,종로구,서울특별시
FC002932,아스가르드 씨어터 (구. 낙산씨어터),1.0,민간(대학로),,92.0,02-6012-2511,,서울특별시 종로구 동숭길 140(혜화동),37.5836705,127.0025639,N,N,N,N,N,N,N,N,N,N,,,,,종로구,서울특별시
FC003360,광진어린이공연장,1.0,민간(대학로 외),,105.0,,,서울특별시 광진구 능동로 400(중곡동),37.5650581,127.0844568,N,N,N,N,N,N,N,N,N,Y,,,,,광진구,서울특별시
FC001137,안똔체홉극장,2.0,민간(대학로),2007.0,65.0,02-745-8960,http://www.chekhov.co.kr,서울특별시 종로구 성균관로3길 23 (명륜3가),37.5830504,126.99701000000005,N,N,N,N,N,N,N,N,N,N,,,,,종로구,서울특별시
FC001245,평촌아트홀,1.0,공공(문예회관),2004.0,638.0,031-687-0500,http://www.ayac.or.kr/,경기도 안양시 동안구 평촌대로 76 (호계동),37.3801134,126.96406060000004,N,Y,N,Y,N,Y,Y,Y,Y,Y,,,,,안양시,경기도
FC001950,대진대학교,3.0,기타(비공연장),2012.0,6304.0,031-539-1114,http://www.daejin.ac.kr/index.do?sso=ok,경기도 포천시 호국로 1007 (선단동),37.8734346,127.1573986,Y,Y,Y,N,N,Y,Y,N,N,Y,,,,,포천시,경기도
FC000098,극장 온 (ON) (구.CJ아지트),1.0,민간(대학로),2016.0,190.0,02-726-7967,https://www.cjazit.org/cjazit,서울특별시 종로구 대학로12길 69 (동숭동),37.5809629,127.00394989999997,Y,N,N,N,N,N,N,N,N,N,,,,,종로구,서울특별시
FC003776,한바탕 소극장,1.0,민간(대학로 외),,0.0,,,서울특별시 송파구 송이로32길 19 (문정동),37.4882251,127.1277366,N,N,N,N,N,N,N,N,N,N,,,,,송파구,서울특별시
FC001655,모두누림센터,1.0,공공(문예회관),2017.0,372.0,031-357-5238,http://art.hcf.or.kr/subpage/index/504,경기도 화성시 남양읍 시청로 155,37.1987619,126.82857749999994,Y,Y,N,Y,N,Y,Y,Y,Y,Y,,,,,화성시,경기도
FC001094,예술공간 혜화,1.0,민간(대학로),2012.0,110.0,02-747-9139,,서울특별시 종로구 혜화로 10-3 성인빌딩,37.5890224,126.99993619999998,N,N,N,N,N,N,N,N,N,N,,,,,종로구,서울특별시
FC003770,성북장애인자립생활센터,1.0,기타(비공연장),,0.0,02-921-7232,http://www.sbcil.org/,서울특별시 성북구 보문로 134 (보문동1가),37.5869755,127.0187924,N,N,N,N,N,N,Y,N,Y,N,,,,,성북구,서울특별시
FC000152,한성아트홀(구. 인켈아트홀),2.0,민간(대학로),1990.0,400.0,02-741-0251,,서울특별시 종로구 창경궁로 254 (명륜2가),37.5728677,126.9970786,N,N,N,N,N,N,N,N,N,Y,,,,,종로구,서울특별시
FC000643,오정아트홀,1.0,공공(기타),2003.0,404.0,032-677-1844,http://www.bcf.or.kr/coro/conc/conctour/concerttourList5.act,경기도 부천시 성오로 172 (오정동),37.527703,126.79657169999996,N,N,N,N,N,Y,N,Y,N,Y,,,,,부천시,경기도
FC003490,청년예술청 SAPY,3.0,민간(대학로 외),,115.0,,http://www.sapy.kr/,"서울특별시 서대문구 경기대로 26-26 (충정로3가, 더스타일하우스디센트럴)",37.5610226,126.9621924,N,N,N,N,N,N,N,N,N,N,,,,,서대문구,서울특별시
FC003732,나비카페,1.0,기타(비공연장),,0.0,,,서울특별시 마포구 고산2길 6 (노고산동),37.553197,126.9378929,N,N,N,N,N,N,N,N,N,N,,,,,마포구,서울특별시
FC001172,"정극장 (구. M시어터, 구.하모니아트홀)",1.0,민간(대학로),2012.0,118.0,02-6221-6485,,서울특별시 종로구 대학로12길 69 (동숭동),37.5818321,127.003427,N,N,N,N,N,N,N,N,N,Y,,,,,종로구,서울특별시
FC003696,이행성극장,1.0,민간(대학로 외),,30.0,,,서울특별시 마포구 동교로9길 83 (망원동),37.5571464,126.9081293,N,N,N,N,N,N,N,N,N,N,,,,,마포구,서울특별시
FC001541,꿈나무극장,1.0,공공(기타),2016.0,153.0,02-830-2562,https://www.guroartsvalley.or.kr/user/overall/overallArt5.do,서울특별시 구로구 구로동로26길 54 (구로동),37.4898684,126.88724649999996,N,N,N,N,N,Y,Y,N,Y,Y,,,,,구로구,서울특별시
FC001485,서초문화예술회관(구. 서초구민회관),1.0,공공(문예회관),1989.0,690.0,02-2155-8301,http://www.seocho.go.kr/site/seocho/04/10404021401002015070703.jsp,서울특별시 서초구 강남대로 201 (양재동) 서초구민회관,37.48181,127.03574389999994,N,Y,N,N,N,Y,Y,Y,Y,Y,,,,,서초구,서울특별시
FC003693,정화예술대학교 대학로캠퍼스 정화1관,1.0,민간(대학로),,0.0,,,서울특별시 종로구 동숭1길 1 (동숭동 187-3),37.5800599,127.0046544,N,N,N,N,N,N,N,N,N,N,,,,,종로구,서울특별시
FC001085,소극장 혜화당 (구. 까망소극장),1.0,민간(대학로),1993.0,115.0,02-742-1505,http://blog.naver.com/hehwadang,서울특별시 종로구 대학로12길 63 (동숭동),37.5812279,127.00391100000002,Y,N,N,N,N,N,N,N,N,N,,,,,종로구,서울특별시
FC003425,신포아트홀,1.0,민간(대학로 외),2022.0,50.0,032-514-2150,https://blog.naver.com/n9016,인천광역시 중구 신포로31번길 6 (관동3가),37.4719449,126.6252219,N,N,N,N,N,N,N,N,N,N,,,,,중구,인천광역시
FC001459,플러스씨어터(구. 컬처스페이스 엔유 구. 쁘티첼 씨어터),1.0,민간(대학로),2010.0,314.0,02-731-9199,,서울특별시 종로구 대학로12길 73 (동숭동),37.5807747,127.00396490000004,N,N,N,N,N,N,N,N,N,N,,,,,종로구,서울특별시
FC003267,스페이스T (SPACE T)(경계없는예술센터),1.0,민간(대학로 외),,128.0,,https://www.casf.or.kr/,서울특별시 영등포구 당산로 34(문래동3가),37.5174631,126.8964937,N,N,N,N,N,N,N,N,N,N,,,,,영등포구,서울특별시
FC000372,올웨이즈 씨어터(구.아티스탄홀),1.0,민간(대학로),2003.0,299.0,070-4618-5633,,서울특별시 종로구 대학로 132 (동숭동),37.5830591,127.00208550000002,N,N,N,N,N,N,N,N,N,N,,,,,종로구,서울특별시
FC003580,예술공간 휴서사,1.0,민간(대학로 외),2023.0,100.0,,hueseosa.com,경기도 의정부시 둔야로49번길 29 (의정부동),37.7402315,127.0378666,N,N,N,N,N,N,Y,N,N,N,,,,,의정부시,경기도
FC002740,윤아트홀,1.0,민간(대학로 외),,40.0,031-222-2570,https://yunarthall.modoo.at/,경기도 수원시 팔달구 권광로207번길 28 (인계동),37.2666379,127.0318962,N,N,N,N,N,N,N,N,N,Y,,,,,수원시,경기도
FC003212,솔내아트센터,1.0,민간(대학로 외),2022.0,90.0,031-362-5838,https://blog.naver.com/prologue/PrologueList.naver?blogId=solnae-art&skinType=&skinId=&from=menu&userSelectMenu=true,경기도 시흥시 호현로 42-8(대야동),37.4439538,126.7856452,N,N,N,N,N,N,N,N,N,Y,,,,,시흥시,경기도
FC001132,올림아트센터 (구.스튜디오76),1.0,민간(대학로),2013.0,210.0,010-5262-4611,https://erang.modoo.at/,서울특별시 종로구 이화장길 99 (동숭동),37.5835101,127.00192219999995,N,N,N,N,N,N,N,N,N,N,,,,,종로구,서울특별시
FC003565,바른아트센터,1.0,민간(대학로 외),,180.0,,http://www.barunsesang.co.kr/m/10_art_center/art_center0101.php?,경기도 성남시 분당구 야탑로75번길 5 (야탑동),37.4108438,127.1268172,N,N,N,N,N,N,N,N,N,N,,,,,성남시,경기도
FC000057,용인포은아트홀,1.0,공공(문예회관),2012.0,1259.0,031-260-3351,http://yicf.or.kr/main/?skin=guide010101.htm,경기도 용인시 수지구 포은대로 499 (죽전동),37.3256631,127.10469480000006,N,N,N,N,N,Y,Y,Y,Y,Y,,,,,용인시,경기도
FC001236,예스24 스테이지(구. DCF대명문화공장),3.0,민간(대학로),2014.0,962.0,02-742-9637,https://yes24stage.com/,서울특별시 종로구 대학로12길 21 (동숭동),37.5827158,127.00324840000007,N,N,N,N,N,N,N,N,N,Y,,,,,종로구,서울특별시
FC001223,서연아트홀 (구. 인아소극장),1.0,민간(대학로),2013.0,150.0,070-5180-5956,,서울특별시 종로구 창경궁로 258 - 9,37.5838644,127.00056100000006,N,N,N,N,N,N,N,N,N,N,,,,,종로구,서울특별시
FC003409,부개사거리소극장,1.0,민간(대학로 외),,0.0,,,인천광역시 부평구 경인로 1075 (부개동),37.4866578,126.7395093,N,N,N,N,N,N,N,N,N,N,,,,,부평구,인천광역시
FC001603,아트포레스트 아트홀,2.0,민간(대학로),2016.0,367.0,02-3672-0900,,서울특별시 종로구 대학로12길 22 (동숭동),37.5825141,127.0030633,N,N,N,N,N,N,N,N,N,N,,,,,종로구,서울특별시
FC001174,바탕골소극장,1.0,민간(대학로),1986.0,160.0,02-764-8760,,서울특별시 종로구 대학로10길 5 (동숭동),37.5818197,127.00255949999996,Y,Y,N,N,N,N,N,N,N,N,,,,,종로구,서울특별시
FC001414,코델아트홀,1.0,민간(대학로),2016.0,120.0,010-6802-1974,https://codellarthall.modoo.at/,서울특별시 종로구 동숭길 78 (동숭동) 지하1층,37.5817072,127.00428190000002,N,N,N,N,N,N,N,N,N,N,,,,,종로구,서울특별시
FC000416,지인시어터(구. 알과핵소극장),1.0,민간(대학로),1998.0,176.0,02-745-8833,,서울특별시 종로구 동숭길 25 (동숭동),37.5798541,127.0035752,N,N,N,N,N,Y,N,N,N,Y,,,,,종로구,서울특별시
FC003448,남산예술센터 드라마센터,1.0,민간(대학로 외),,473.0,,,서울특별시 중구 소파로 138 (예장동),37.5591301,126.9883894,N,N,N,N,N,N,N,N,N,N,,,,,중구,서울특별시
FC000362,선돌극장,1.0,민간(대학로),2007.0,130.0,02-747-3226,,서울특별시 종로구 혜화로5길 5 (명륜1가),37.5867715,126.99974999999996,N,N,N,N,N,N,N,N,N,N,,,,,종로구,서울특별시
FC000794,세우아트센터,2.0,민간(대학로),2002.0,262.0,070-7542-5089,,서울특별시 종로구 대학로12길 49 (동숭동),37.5819127,127.00396899999998,N,N,N,N,N,N,N,N,N,N,,,,,종로구,서울특별시
FC001802,한양대학교 올림픽체육관,2.0,민간(대학로 외),1980.0,7000.0,02-2220-1315,https://space.hanyang.ac.kr/front/spaceGuidance/BuildingDetail?num=306&pageName=buildingDetailsPage&page=buildingDetailsPage,서울특별시 성동구 왕십리로 222 (사근동),37.5572321,127.04532189999998,N,N,N,N,N,Y,Y,Y,Y,Y,,,,,성동구,서울특별시
FC000833,예스24아트원(구.대학로아트원씨어터),3.0,민간(대학로),2009.0,851.0,02-762-0010,,서울특별시 종로구 대학로12길 83 (동숭동),37.5802316,127.0040004,N,N,N,N,N,N,N,N,N,N,,,,,종로구,서울특별시
FC003530,엔틱243 스튜디오,1.0,민간(대학로 외),,0.0,,,"서울특별시 서초구 강남대로18길 15-6 (양재동, 동심빌딩)",37.4721877,127.0399003,N,N,N,N,N,N,N,N,N,N,,,,,서초구,서울특별시
FC003525,수유연극실험실,1.0,민간(대학로 외),,20.0,,,서울특별시 강북구 노해로11길 4 (수유동),37.6391138,127.0223546,N,N,N,N,N,N,N,N,N,N,,,,,강북구,서울특별시
FC003568,인천문화양조장,1.0,민간(대학로 외),,0.0,032-422-8630,https://spacebeam.net/brewery-space-guide,인천광역시 동구 서해대로513번길 15 (창영동),0.0,0.0,N,N,N,N,N,N,N,N,N,N,,,,,동구,인천광역시
FC001250,지구인아트홀 (구. 해오름 예술극장),1.0,민간(대학로),2014.0,170.0,02-745-3641,,서울특별시 종로구 창경궁로 260 (명륜2가),37.5843848,127.00051899999994,N,Y,N,N,N,N,N,N,N,N,,,,,종로구,서울특별시
FC003466,SCN 아트홀,1.0,민간(대학로 외),,60.0,070-4218-9928,https://scn.modoo.at/,경기도 화성시 병점로 37-6 (진안동),37.2110518,127.0383312,N,N,N,N,N,N,N,N,N,N,,,,,화성시,경기도
FC000006,국립정동극장,2.0,국립,1995.0,850.0,02-751-1500,http://www.jeongdong.or.kr,서울특별시 중구 정동길 43 (정동),37.5659672,126.97285929999998,N,N,N,N,N,N,N,N,Y,Y,,,,,중구,서울특별시
FC000769,대학로 마로니에소극장(플레이더씨어터),1.0,민간(대학로),1987.0,100.0,02-764-0686,http://cafe.naver.com/artfactoryshow,서울특별시 종로구 동숭길 50 (동숭동),37.5805247,127.00456029999998,N,N,N,N,N,N,N,N,N,N,,,,,종로구,서울특별시
FC003540,모돈갤러리,1.0,민간(대학로 외),,0.0,,,경기도 포천시 군내면 꽃배산2길 105,37.8612072,127.2333167,N,N,N,N,N,N,N,N,N,N,,,,,포천시,경기도
FC001111,국립극단 [용산],8.0,국립,2010.0,372.0,00-1644-2003,http://www.ntck.or.kr/,서울특별시 용산구 청파로 373 (서계동),37.5529135,126.96795470000006,N,Y,N,N,N,N,N,N,N,Y,,,,,용산구,서울특별시
FC001233,유니플렉스,3.0,민간(대학로),2013.0,1049.0,02-766-2115,http://www.uniplex.co.kr/,서울특별시 종로구 대학로12길 64 (동숭동),37.5811328,127.00369969999996,N,Y,N,N,N,N,N,N,N,Y,,,,,종로구,서울특별시
FC000763,상명아트홀,2.0,민간(대학로),2001.0,270.0,02-2075-2173,https://www.smu.ac.kr/smarts/index.do,서울특별시 종로구 동숭길 133 (동숭동),37.5833331,127.00272719999998,N,Y,N,N,N,Y,Y,N,Y,Y,,,,,종로구,서울특별시
FC001658,현대백화점 문화홀 [미아],1.0,민간(대학로 외),2001.0,480.0,02-2117-2117,http://www.ehyundai.com/newCulture/CW/CW000001_V.do,서울특별시 성북구 동소문로 315 (길음동),37.6083223,127.02876259999994,Y,Y,Y,Y,Y,Y,Y,Y,Y,Y,,,,,성북구,서울특별시
FC000567,꿈의숲아트센터,3.0,공공(기타),2009.0,584.0,02-2289-5401,http://www.dfac.or.kr/main/main.asp,서울특별시 강북구 월계로 173 (번동),37.6214312,127.0406246,Y,Y,Y,N,N,Y,Y,Y,Y,Y,,,,,강북구,서울특별시
FC001099,댕로홀,1.0,민간(대학로),2005.0,83.0,070-8600-8342,,서울특별시 종로구 대학로12길 50 (동숭동),37.5818195,127.00370980000002,N,N,N,N,N,N,N,N,N,N,,,,,종로구,서울특별시
FC001696,트라이보울,3.0,공공(문예회관),2010.0,300.0,032-832-7994,http://www.tribowl.kr/,인천광역시 연수구 인천타워대로 250 (송도동),37.3940776,126.63503560000004,N,N,N,N,N,Y,Y,Y,Y,Y,,,,,연수구,인천광역시
FC001203,동숭무대소극장,1.0,민간(대학로),2002.0,150.0,010-8299-6553,http://cafe.naver.com/dsstage,서울특별시 종로구 혜화로 35 (명륜1가),37.5864426,127.00049820000004,Y,N,N,N,N,N,N,Y,N,N,,,,,종로구,서울특별시
FC000662,세종국악당,1.0,공공(문예회관),1991.0,388.0,031-887-2066,http://www.yjcf.or.kr/cms/content/view/215,경기도 여주시 영릉로 125 (하동),37.2971351,127.6249408,N,N,N,N,N,N,N,N,N,Y,,,,,여주시,경기도
FC003789,공백공유,1.0,민간(대학로 외),,70.0,,,서울특별시 성북구 솔샘로 73-16 (정릉동),37.6136085,127.0078043,N,N,N,N,N,N,N,N,N,N,,,,,성북구,서울특별시
FC001671,뜻밖의 극장(구. 해우소소극장),1.0,민간(대학로 외),2018.0,50.0,02-921-5080,https://blog.naver.com/theatre-uex,서울특별시 성북구 동소문로20나길 27 (동선동1가),37.59245,127.0181255,N,N,N,N,N,N,N,N,N,N,,,,,성북구,서울특별시
FC001091,대학로 스카이씨어터,2.0,민간(대학로),2010.0,330.0,070-4106-8889,,서울특별시 종로구 대학로8가길 52 (동숭동),37.5829439,127.00262709999993,N,N,N,N,N,N,N,N,N,N,,,,,종로구,서울특별시
